UNITID,INSTNM,CITY,STABBR,LONGITUD,LATITUDE
100654,Alabama A & M University,Normal,AL,-86.568502,34.783368
100663,University of Alabama at Birmingham,Birmingham,AL,-86.799345,33.505697
100690,Amridge University,Montgomery,AL,-86.17401,32.362609
100706,University of Alabama in Huntsville,Huntsville,AL,-86.640449,34.724557
100724,Alabama State University,Montgomery,AL,-86.295677,32.364317
100733,University of Alabama System Office,Tuscaloosa,AL,-87.529594,33.207015
100751,The University of Alabama,Tuscaloosa,AL,-87.545978,33.211875
100760,Central Alabama Community College,Alexander City,AL,-85.945266,32.92478
100812,Athens State University,Athens,AL,-86.964698,34.806793
100830,Auburn University at Montgomery,Montgomery,AL,-86.177544,32.36736
100858,Auburn University,Auburn,AL,-85.488258,32.599378
100937,Birmingham Southern College,Birmingham,AL,-86.850552,33.513774
101028,Chattahoochee Valley Community College,Phenix City,AL,-85.031485,32.42391
101073,Concordia College Alabama,Selma,AL,-87.019145,32.425647
101116,South University-Montgomery,Montgomery,AL,-86.216488,32.342684
101143,Enterprise State Community College,Enterprise,AL,-85.836956,31.297496
101161,Coastal Alabama Community College,Bay Minette,AL,-87.778193,30.851343
101189,Faulkner University,Montgomery,AL,-86.21641,32.384181
101240,Gadsden State Community College,Gadsden,AL,-85.991438,33.994001
101277,New Beginning College of Cosmetology,Albertville,AL,-86.196931,34.27871
101286,George C Wallace Community College-Dothan,Dothan,AL,-85.465836,31.315274
101295,George C Wallace State Community College-Hanceville,Hanceville,AL,-86.781935,34.072439
101301,George C Wallace State Community College-Selma,Selma,AL,-87.013294,32.445917
101365,Herzing University-Birmingham,Birmingham,AL,-86.832465,33.468466
101435,Huntingdon College,Montgomery,AL,-86.284366,32.351034
101453,Heritage Christian University,Florence,AL,-87.663051,34.856153
101462,J. F. Drake State Community and Technical College,Huntsville,AL,-86.572885,34.771858
101471,J F Ingram State Technical College,Deatsville,AL,-86.392369,32.582312
101480,Jacksonville State University,Jacksonville,AL,-85.765321,33.822938
101499,Jefferson Davis Community College,Brewton,AL,-87.08534,31.101254
101505,Jefferson State Community College,Birmingham,AL,-86.707233,33.652535
101514,John C Calhoun State Community College,Tanner,AL,-86.949674,34.645844
101541,Judson College,Marion,AL,-87.315206,32.629253
101569,Lawson State Community College,Birmingham,AL,-86.888844,33.450814
101587,University of West Alabama,Livingston,AL,-88.186329,32.588132
101602,Lurleen B Wallace Community College,Andalusia,AL,-86.452262,31.322947
101648,Marion Military Institute,Marion,AL,-87.322041,32.623734
101675,Miles College,Fairfield,AL,-86.908751,33.482442
101693,University of Mobile,Mobile,AL,-88.128934,30.793247
101709,University of Montevallo,Montevallo,AL,-86.865099,33.10625
101736,Northwest-Shoals Community College,Muscle Shoals,AL,-87.678089,34.739788
101879,University of North Alabama,Florence,AL,-87.681361,34.806738
101897,Northeast Alabama Community College,Rainsville,AL,-85.911664,34.545471
101912,Oakwood University,Huntsville,AL,-86.652705,34.756344
101949,Alabama Southern Community College,Monroeville,AL,-87.326352,31.488925
101994,Reid State Technical College,Evergreen,AL,-86.964797,31.460265
102030,Bishop State Community College,Mobile,AL,-88.056982,30.693972
102049,Samford University,Birmingham,AL,-86.791799,33.464128
102058,Selma University,Selma,AL,-87.032392,32.420387
102067,Shelton State Community College,Tuscaloosa,AL,-87.56148,33.120531
102076,Snead State Community College,Boaz,AL,-86.169897,34.201495
102094,University of South Alabama,Mobile,AL,-88.178711,30.696033
102234,Spring Hill College,Mobile,AL,-88.138199,30.694751
102270,Stillman College,Tuscaloosa,AL,-87.585278,33.200006
102298,Talladega College,Talladega,AL,-86.112704,33.433472
102313,H Councill Trenholm State Community College,Montgomery,AL,-86.343057,32.350109
102368,Troy University,Troy,AL,-85.957094,31.800672
102377,Tuskegee University,Tuskegee,AL,-85.708492,32.4309
102395,United States Sports Academy,Daphne,AL,-87.91163,30.639329
102429,Bevill State Community College,Jasper,AL,-87.266406,33.836929
102553,University of Alaska Anchorage,Anchorage,AK,-149.82619,61.190163
102580,Alaska Bible College,Palmer,AK,-149.111972,61.598553
102614,University of Alaska Fairbanks,Fairbanks,AK,-147.823146,64.85756
102632,University of Alaska Southeast,Juneau,AK,-134.638255,58.384846
102669,Alaska Pacific University,Anchorage,AK,-149.804168,61.190968
102711,AVTEC-Alaska's Institute of Technology,Seward,AK,-149.444487,60.110626
102845,Charter College,Vancouver,WA,-122.494766,45.617798
103501,Alaska Career College,Anchorage,AK,-149.856954,61.181443
103529,University of Alaska System of Higher Education,Fairbanks,AK,-147.848969,64.857516
103741,Empire Beauty School-Tucson,Tucson,AZ,-110.927187,32.235657
103778,Thunderbird School of Global Management,Glendale,AZ,-112.180861,33.620887
103811,American Institute of Trucking,Phoenix,AZ,-112.162577,33.426692
103893,Carrington College-Phoenix North,Phoenix,AZ,-112.116105,33.561689
103909,Carrington College-Mesa,Mesa,AZ,-111.853218,33.39248
103927,Carrington College-Tucson,Tucson,AZ,-110.983056,32.224391
103945,CollegeAmerica-Flagstaff,Flagstaff,AZ,-111.657673,35.194495
103954,Arizona Academy of Beauty-East,Tucson,AZ,-110.872305,32.237253
103963,Platt College-Arizona Automotive Institute Arizona,Glendale,AZ,-112.157344,33.537249
104090,Brookline College-Phoenix,Phoenix,AZ,-112.112473,33.566102
104151,Arizona State University-Tempe,Tempe,AZ,-111.934383,33.417721
104160,Arizona Western College,Yuma,AZ,-114.495968,32.689306
104179,University of Arizona,Tucson,AZ,-110.950815,32.232672
104188,Southwest University of Visual Arts-Tucson,Tucson,AZ,-110.927265,32.252879
104346,Central Arizona College,Coolidge,AZ,-111.652501,32.957092
104391,Charles of Italy Beauty College,Lake Havasu City,AZ,-114.332686,34.477485
104425,Cochise County Community College District,Sierra Vista,AZ,-110.246946,31.564597
104434,Empire Beauty School-Flagstaff,Flagstaff,AZ,-111.625936,35.197151
104443,Empire Beauty School-Chandler,Chandler,AZ,-111.860423,33.347586
104504,Cortiva Institute-Tucson,Tucson,AZ,-110.856785,32.21901
104568,Avalon School of Cosmetology-Mesa,Mesa,AZ,-111.858305,33.376583
104577,Eastern Arizona College,Thatcher,AZ,-109.76234,32.843664
104586,Embry-Riddle Aeronautical University-Prescott,Prescott,AZ,-112.449741,34.616766
104665,School of Architecture at Taliesin,Scottsdale,AZ,-111.845411,33.607097
104708,Glendale Community College,Glendale,AZ,-112.190735,33.570226
104717,Grand Canyon University,Phoenix,AZ,-112.129929,33.513231
105136,Maricopa Community College System Office,Tempe,AZ,-111.975786,33.412915
105145,GateWay Community College,Phoenix,AZ,-111.997077,33.449686
105154,Mesa Community College,Mesa,AZ,-111.871255,33.390323
105206,Mohave Community College,Kingman,AZ,-114.029838,35.270996
105215,Universal Technical Institute of Arizona Inc-Motorcycle Mechanics Institute Division,Phoenix,AZ,-112.121336,33.684428
105297,Dine College,Tsaile,AZ,-109.21684,36.293328
105330,Northern Arizona University,Flagstaff,AZ,-111.653724,35.188449
105349,Northland Pioneer College,Holbrook,AZ,-110.142199,34.93031
105367,Ottawa University-Phoenix,Phoenix,AZ,-112.113001,33.572173
105428,Phoenix College,Phoenix,AZ,-112.088293,33.481361
105482,Cortiva Institute-Scottsdale,Scottsdale,AZ,-111.90807,33.466153
105525,Pima Community College,Tucson,AZ,-110.886659,32.222125
105534,Pima Medical Institute-Tucson,Tucson,AZ,-110.921301,32.2502
105543,Pima Medical Institute-Albuquerque,Albuquerque,NM,-106.59488,35.104855
105589,Prescott College,Prescott,AZ,-112.477185,34.5452
105659,Refrigeration School Inc,Phoenix,AZ,-111.989357,33.448692
105668,Rio Salado College,Tempe,AZ,-111.97417,33.413309
105677,Roberto-Venn School of Luthiery,Phoenix,AZ,-112.086161,33.45489
105747,Scottsdale Community College,Scottsdale,AZ,-111.885186,33.51135
105792,South Mountain Community College,Phoenix,AZ,-112.032635,33.382406
105899,Arizona Christian University,Phoenix,AZ,-112.026211,33.595117
106041,Universal Technical Institute of Arizona Inc,Avondale,AZ,-112.288123,33.453005
106102,Western International University,Tempe,AZ,-111.964527,33.403294
106111,Empire Beauty School-NW Phoenix,Phoenix,AZ,-112.118168,33.538093
106148,Yavapai College,Prescott,AZ,-112.453395,34.547495
106245,University of Arkansas at Little Rock,Little Rock,AR,-92.339778,34.723254
106263,University of Arkansas for Medical Sciences,Little Rock,AR,-92.320046,34.749048
106306,Arkansas Baptist College,Little Rock,AR,-92.290555,34.734751
106315,Arkansas Beauty School-Little Rock,Little Rock,AR,-92.343366,34.672171
106324,Arkansas Beauty College,Russellville,AR,-93.135369,35.27902
106342,Lyon College,Batesville,AR,-91.625354,35.777619
106351,Arkansas College of Barbering and Hair Design,North Little Rock,AR,-92.266429,34.753843
106360,Arthur's Beauty College Inc-Fort Smith,Fort Smith,AR,-94.410967,35.379955
106397,University of Arkansas,Fayetteville,AR,-94.176981,36.070009
106412,University of Arkansas at Pine Bluff,Pine Bluff,AR,-92.018683,34.244031
106449,Arkansas State University-Beebe,Beebe,AR,-91.895351,35.074176
106458,Arkansas State University-Main Campus,Jonesboro,AR,-90.679988,35.842388
106467,Arkansas Tech University,Russellville,AR,-93.13562,35.293237
106485,University of Arkansas at Monticello,Monticello,AR,-91.811153,33.590909
106494,Arthur's Beauty College Inc-Jacksonville,Jacksonville,AR,-92.102579,34.891572
106546,Baptist Health College Little Rock,Little Rock,AR,-92.40692,34.713115
106625,Black River Technical College,Pocahontas,AR,-90.951033,36.239793
106704,University of Central Arkansas,Conway,AR,-92.457672,35.077945
106713,Central Baptist College,Conway,AR,-92.445021,35.083838
106795,Cossatot Community College of the University of Arkansas,De Queen,AR,-94.3673,34.043389
106810,Crowley's Ridge College,Paragould,AR,-90.584395,36.064845
106829,Crowley's Ridge Technical Institute,Forrest City,AR,-90.767321,35.039816
106883,East Arkansas Community College,Forrest City,AR,-90.767726,35.041655
106892,Eastern College of Health Vocations-Little Rock,Little Rock,AR,-92.341891,34.75128
106908,Imagine-Paul Mitchell Partner School,North Little Rock,AR,-92.222202,34.789913
106980,National Park College,Hot Springs,AR,-93.119248,34.512687
106999,University of Arkansas Community College-Batesville,Batesville,AR,-91.615852,35.792923
107044,Harding University,Searcy,AR,-91.726041,35.247337
107071,Henderson State University,Arkadelphia,AR,-93.059703,34.128155
107080,Hendrix College,Conway,AR,-92.443256,35.101565
107099,Hot Springs Beauty College,Hot Springs,AR,-93.037277,34.496057
107123,Jefferson Regional Medical Center School of Nursing,Pine Bluff,AR,-92.018045,34.187831
107141,John Brown University,Siloam Springs,AR,-94.560283,36.189812
107220,Career Academy of Hair Design,Springdale,AR,-94.12947,36.167605
107293,Academy of Salon and Spa,Fort Smith,AR,-94.41616,35.38097
107318,Arkansas State University Mid-South,West Memphis,AR,-90.22285,35.145736
107327,Arkansas Northeastern College,Blytheville,AR,-89.921005,35.898597
107442,New Tyler Barber College Inc,North Little Rock,AR,-92.254171,34.760085
107460,North Arkansas College,Harrison,AR,-93.08844,36.219909
107488,Northwest Technical Institute,Springdale,AR,-94.115346,36.178032
107512,Ouachita Baptist University,Arkadelphia,AR,-93.052471,34.126093
107521,College of the Ouachitas,Malvern,AR,-92.821416,34.378745
107549,Ozarka College,Melbourne,AR,-91.896355,36.053031
107558,University of the Ozarks,Clarksville,AR,-93.467221,35.476278
107585,University of Arkansas Community College-Morrilton,Morrilton,AR,-92.728507,35.172136
107600,Philander Smith College,Little Rock,AR,-92.283015,34.737131
107619,Phillips Community College of the University of Arkansas,Helena,AR,-90.616884,34.546155
107637,Southeast Arkansas College,Pine Bluff,AR,-92.025936,34.210309
107655,Professional Cosmetology Education Center,El Dorado,AR,-92.664101,33.216032
107664,University of Arkansas-Pulaski Technical College,North Little Rock,AR,-92.299184,34.782783
107725,University of Arkansas Community College-Hope,Hope,AR,-93.596762,33.641665
107743,University of Arkansas Community College Rich Mountain,Mena,AR,-94.219799,34.591449
107789,Paul Mitchell the School-Arkansas,Fayetteville,AR,-94.153892,36.126373
107831,Searcy Beauty College,Searcy,AR,-91.735135,35.239148
107840,Shorter College,N Little Rock,AR,-92.261331,34.75933
107877,Williams Baptist University,Walnut Ridge,AR,-90.940277,36.125676
107974,South Arkansas Community College,El Dorado,AR,-92.666087,33.209446
107983,Southern Arkansas University Main Campus,Magnolia,AR,-93.235922,33.291618
107992,Southern Arkansas University Tech,Camden,AR,-92.721629,33.628367
108056,University of Arkansas System Office,Little Rock,AR,-92.343714,34.775989
108065,Velvatex College of Beauty Culture,Little Rock,AR,-92.289597,34.735685
108092,University of Arkansas-Fort Smith,Fort Smith,AR,-94.373729,35.384184
108232,Academy of Art University,San Francisco,CA,-122.400578,37.787943
108269,Academy of Chinese Culture and Health Sciences,Oakland,CA,-122.269839,37.805972
108348,The Academy of Radio and TV Broadcasting,Huntington Beach,CA,-117.987762,33.729535
108649,Avalon School of Cosmetology-Alameda,Alameda,CA,-122.243566,37.764203
108667,College of Alameda,Alameda,CA,-122.279303,37.781017
108807,Allan Hancock College,Santa Maria,CA,-120.421144,34.943716
108852,American Academy of Dramatic Arts-Los Angeles,Los Angeles,CA,-118.343701,34.095378
108861,American Baptist Seminary of the West,Berkeley,CA,-122.256149,37.865252
108870,American Film Institute Conservatory,Los Angeles,CA,-118.310018,34.10767
108977,American Beauty College,West Covina,CA,-117.936959,34.069367
109040,American Career College-Los Angeles,Los Angeles,CA,-118.292481,34.079323
109086,American Conservatory Theater,San Francisco,CA,-122.40475,37.787343
109208,American River College,Sacramento,CA,-121.349672,38.65085
109350,Antelope Valley College,Lancaster,CA,-118.186166,34.676207
109651,Art Center College of Design,Pasadena,CA,-118.185102,34.169031
109721,Associated Technical College-Los Angeles,Los Angeles,CA,-118.272364,34.056102
109730,Associated Technical College-San Diego,San Diego,CA,-117.157988,32.715375
109785,Azusa Pacific University,Azusa,CA,-117.888375,34.130047
109819,Bakersfield College,Bakersfield,CA,-118.973753,35.40911
109907,Barstow Community College,Barstow,CA,-117.023412,34.870285
109934,Bellus Academy-Chula Vista,Chula Vista,CA,-117.083738,32.614773
110060,Bethesda University,Anaheim,CA,-117.941323,33.842295
110097,Biola University,La Mirada,CA,-118.014374,33.906203
110194,Brownson Technical School,Anaheim,CA,-117.905774,33.819032
110219,Bryan University,Tempe,AZ,-111.944197,33.437779
110246,Butte College,Oroville,CA,-121.644831,39.649782
110307,Phillips Graduate University,Chatsworth,CA,-118.567688,34.242
110316,California Institute of Integral Studies,San Francisco,CA,-122.416102,37.774924
110334,Cabrillo College,Aptos,CA,-121.924797,36.989448
110361,California Baptist University,Riverside,CA,-117.425619,33.929321
110370,California College of the Arts,San Francisco,CA,-122.399451,37.767485
110398,University of California-Hastings College of Law,San Francisco,CA,-122.4157,37.781137
110404,California Institute of Technology,Pasadena,CA,-118.125878,34.137349
110413,California Lutheran University,Thousand Oaks,CA,-118.878924,34.224566
110422,California Polytechnic State University-San Luis Obispo,San Luis Obispo,CA,-120.657311,35.299513
110468,Alliant International University-San Diego,San Diego,CA,-117.094398,32.897056
110486,California State University-Bakersfield,Bakersfield,CA,-119.104711,35.350005
110495,California State University-Stanislaus,Turlock,CA,-120.852511,37.52577
110501,California State University-Chancellors Office,Long Beach,CA,-118.201255,33.764338
110510,California State University-San Bernardino,San Bernardino,CA,-117.323801,34.182622
110529,California State Polytechnic University-Pomona,Pomona,CA,-117.821476,34.057912
110538,California State University-Chico,Chico,CA,-121.844859,39.729712
110547,California State University-Dominguez Hills,Carson,CA,-118.255917,33.864766
110556,California State University-Fresno,Fresno,CA,-119.744569,36.811154
110565,California State University-Fullerton,Fullerton,CA,-117.885446,33.881506
110574,California State University-East Bay,Hayward,CA,-122.054135,37.657694
110583,California State University-Long Beach,Long Beach,CA,-118.11204,33.782818
110592,California State University-Los Angeles,Los Angeles,CA,-118.168965,34.066927
110608,California State University-Northridge,Northridge,CA,-118.529319,34.240126
110617,California State University-Sacramento,Sacramento,CA,-121.423549,38.559415
110635,University of California-Berkeley,Berkeley,CA,-122.260463,37.871918
110644,University of California-Davis,Davis,CA,-121.749567,38.539667
110653,University of California-Irvine,Irvine,CA,-117.841248,33.648434
110662,University of California-Los Angeles,Los Angeles,CA,-118.443901,34.068892
110671,University of California-Riverside,Riverside,CA,-117.32741,33.97246
110680,University of California-San Diego,La Jolla,CA,-117.235866,32.877749
110699,University of California-San Francisco,San Francisco,CA,-122.458489,37.763737
110705,University of California-Santa Barbara,Santa Barbara,CA,-119.846426,34.416297
110714,University of California-Santa Cruz,Santa Cruz,CA,-122.058801,36.995584
110778,Sofia University,Palo Alto,CA,-122.10866,37.430325
110875,California Beauty School,Modesto,CA,-120.99689,37.645217
110918,California Christian College,Fresno,CA,-119.711123,36.749366
110936,California Coast University,Santa Ana,CA,-117.86524,33.753135
111054,California Hair Design Academy,La Mesa,CA,-117.024261,32.765221
111081,California Institute of the Arts,Valencia,CA,-118.566837,34.39327
111188,California State University Maritime Academy,Vallejo,CA,-122.231551,38.069061
111391,California Western School of Law,San Diego,CA,-117.162416,32.722192
111434,Canada College,Redwood City,CA,-122.265398,37.44877
111461,College of the Canyons,Santa Clarita,CA,-118.568698,34.403993
111513,Career Academy of Beauty,Garden Grove,CA,-118.031697,33.781018
111638,Casa Loma College-Van Nuys,Van Nuys,CA,-118.457781,34.192829
111708,CET-San Diego,San Diego,CA,-117.105328,32.711302
111717,CET-San Jose,San Jose,CA,-121.88698,37.322723
111726,CET-El Centro,El Centro,CA,-115.549079,32.790908
111744,CET-Colton,Colton,CA,-117.353488,34.077381
111762,CET-Watsonville,Watsonville,CA,-121.767991,36.931833
111799,CET-Salinas,Salinas,CA,-121.65236,36.707333
111887,Cerritos College,Norwalk,CA,-118.097337,33.886874
111896,Cerro Coso Community College,Ridgecrest,CA,-117.66767,35.567525
111920,Chabot College,Hayward,CA,-122.105636,37.642458
111939,Chaffey College,Rancho Cucamonga,CA,-117.573932,34.147663
111948,Chapman University,Orange,CA,-117.852518,33.79302
111966,Charles R Drew University of Medicine and Science,Los Angeles,CA,-118.242791,33.925658
112075,Concordia University-Irvine,Irvine,CA,-117.812305,33.653665
112084,San Diego Christian College,Santee,CA,-116.978112,32.842404
112127,Church Divinity School of the Pacific,Berkeley,CA,-122.261122,37.876184
112172,Citrus College,Glendora,CA,-117.885266,34.135487
112181,Citrus Heights Beauty College,Citrus Heights,CA,-121.289529,38.712951
112190,City College of San Francisco,San Francisco,CA,-122.451155,37.725953
112251,Claremont Graduate University,Claremont,CA,-117.713703,34.103585
112260,Claremont McKenna College,Claremont,CA,-117.711188,34.102154
112288,Milan Institute-Visalia,Visalia,CA,-119.312151,36.27164
112367,Clovis Adult Education,Clovis,CA,-119.690369,36.834459
112376,Coast Community College District Office,Costa Mesa,CA,-117.916066,33.674004
112385,Coastline Community College,Fountain Valley,CA,-117.929143,33.715634
112394,Cogswell College,San Jose,CA,-121.94087,37.414049
112455,Coba Academy,Anaheim,CA,-117.943108,33.841141
112525,Western University of Health Sciences,Pomona,CA,-117.747732,34.058092
112561,Columbia College,Sonora,CA,-120.388385,38.030367
112570,Columbia College Hollywood,Tarzana,CA,-118.538793,34.17972
112686,Compton College,Compton,CA,-118.209463,33.878226
112817,Contra Costa Community College District Office,Martinez,CA,-122.135335,38.019072
112826,Contra Costa College,San Pablo,CA,-122.337377,37.969381
113096,Cosumnes River College,Sacramento,CA,-121.423108,38.45295
113111,Crafton Hills College,Yucaipa,CA,-117.101173,34.039178
113193,Cuesta College,San Luis Obispo,CA,-120.742235,35.331276
113218,Cuyamaca College,El Cajon,CA,-116.943507,32.744954
113236,Cypress College,Cypress,CA,-118.025143,33.82833
113333,De Anza College,Cupertino,CA,-122.045558,37.320788
113449,International School of Beauty Inc,Palm Desert,CA,-116.403928,33.729555
113537,Dell'Arte International School of Physical Theatre,Blue Lake,CA,-123.988808,40.880924
113573,College of the Desert,Palm Desert,CA,-116.388271,33.732108
113582,Design Institute of San Diego,San Diego,CA,-117.167374,32.880926
113634,Diablo Valley College,Pleasant Hill,CA,-122.073142,37.968516
113698,Dominican University of California,San Rafael,CA,-122.512051,37.981279
113704,Dominican School of Philosophy & Theology,Berkeley,CA,-122.264612,37.881099
113856,East Los Angeles College,Monterey Park,CA,-118.148785,34.040531
113980,El Camino Community College District,Torrance,CA,-118.329913,33.885229
114044,Elegance International,Hollywood,CA,-118.338111,34.098445
114114,Emperor's College of Traditional Oriental Medicine,Santa Monica,CA,-118.485119,34.030438
114123,Empire College,Santa Rosa,CA,-122.729337,38.468052
114266,Evergreen Valley College,San Jose,CA,-121.76561,37.30167
114354,FIDM-Fashion Institute of Design & Merchandising-Los Angeles,Los Angeles,CA,-118.25993,34.044209
114390,FIDM-Fashion Institute of Design & Merchandising-San Francisco,San Francisco,CA,-122.406651,37.786353
114415,FIDM-Fashion Institute of Design & Merchandising-Orange County,Irvine,CA,-117.852254,33.691963
114433,Feather River Community College District,Quincy,CA,-120.973067,39.953101
114460,Federico Beauty Institute,Sacramento,CA,-121.497761,38.64883
114549,Fielding Graduate University,Santa Barbara,CA,-119.717161,34.42941
114585,Five Branches University,Santa Cruz,CA,-121.998245,36.964348
114637,Redondo Beach Beauty College,Redondo Beach,CA,-118.372137,33.873098
114716,Foothill College,Los Altos Hills,CA,-122.127964,37.361655
114734,Franciscan School of Theology,Oceanside,CA,-117.320066,33.232416
114761,Fredrick and Charles Beauty College,Eureka,CA,-124.164986,40.798885
114789,Fresno City College,Fresno,CA,-119.796096,36.768164
114813,Fresno Pacific University,Fresno,CA,-119.735199,36.726831
114831,Foothill-De Anza Community College District,Los Altos Hills,CA,-122.12796,37.361664
114840,Fuller Theological Seminary,Pasadena,CA,-118.140261,34.14778
114859,Fullerton College,Fullerton,CA,-117.918255,33.875514
114938,Gavilan College,Gilroy,CA,-121.569842,36.972627
114947,Gemological Institute of America-Carlsbad,Carlsbad,CA,-117.318765,33.131313
115001,Glendale Community College,Glendale,CA,-118.227666,34.16745
115010,Glendale Career College,Glendale,CA,-118.254719,34.149771
115083,Golden Gate University-San Francisco,San Francisco,CA,-122.398969,37.789374
115126,Golden West College,Huntington Beach,CA,-118.002568,33.732531
115214,Graduate Theological Union,Berkeley,CA,-122.261847,37.87554
115287,Grossmont-Cuyamaca Community College District,El Cajon,CA,-117.006277,32.815246
115296,Grossmont College,El Cajon,CA,-117.006277,32.815246
115357,Salon Success Academy-Riverside,Riverside,CA,-117.391024,33.943149
115393,Hartnell College,Salinas,CA,-121.666054,36.675091
115409,Harvey Mudd College,Claremont,CA,-117.709837,34.106515
115658,Hilltop Beauty School,Daly City,CA,-122.461467,37.705502
115728,Holy Names University,Oakland,CA,-122.187804,37.802276
115746,Pacifica Graduate Institute,Carpinteria,CA,-119.580414,34.420881
115755,Humboldt State University,Arcata,CA,-124.078293,40.877481
115773,Humphreys University-Stockton and Modesto Campuses,Stockton,CA,-121.316918,38.011489
115861,Imperial Valley College,Imperial,CA,-115.503563,32.827209
115931,Institute for Business and Technology,Santa Clara,CA,-121.969541,37.368642
116226,Interior Designers Institute,Newport Beach,CA,-117.865722,33.641393
116350,Toni & Guy Hairdressing Academy-Santa Monica,Santa Monica,CA,-118.494755,34.017276
116439,Irvine Valley College,Irvine,CA,-117.777539,33.675381
116563,Bellus Academy-El Cajon,El Cajon,CA,-116.94627,32.794072
116712,John F. Kennedy University,Pleasant Hill,CA,-122.054761,37.956616
116846,American Jewish University,Los Angeles,CA,-118.471706,34.128153
117052,Reedley College,Reedley,CA,-119.458555,36.605428
117104,Life Pacific College,San Dimas,CA,-117.829388,34.098705
117113,Argosy University-The Art Institute of California-San Diego,San Diego,CA,-117.155395,32.778278
117140,University of La Verne,La Verne,CA,-117.773262,34.100855
117168,Laguna College of Art and Design,Laguna Beach,CA,-117.772564,33.561448
117195,Lake Tahoe Community College,South Lake Tahoe,CA,-119.972574,38.926797
117238,Lancaster Beauty School,Lancaster,CA,-118.147547,34.694914
117247,Laney College,Oakland,CA,-122.26283,37.797257
117274,Lassen Community College,Susanville,CA,-120.633271,40.432053
117520,Life Chiropractic College West,Hayward,CA,-122.117619,37.638099
117548,Lincoln Law School of Sacramento,Sacramento,CA,-121.464021,38.57216
117557,Lincoln University,Oakland,CA,-122.269745,37.804788
117575,Southern California Seminary,El Cajon,CA,-116.905461,32.799614
117627,La Sierra University,Riverside,CA,-117.500054,33.910704
117636,Loma Linda University,Loma Linda,CA,-117.260605,34.051241
117645,Long Beach City College,Long Beach,CA,-118.135633,33.833593
117672,Southern California University of Health Sciences,Whittier,CA,-117.983401,33.922966
117681,Los Angeles Community College District Office,Los Angeles,CA,-118.258047,34.048969
117690,Los Angeles Harbor College,Wilmington,CA,-118.28186,33.784201
117706,Los Angeles Pierce College,Woodland Hills,CA,-118.575071,34.183949
117715,Los Angeles Southwest College,Los Angeles,CA,-118.304674,33.929586
117724,Los Angeles Trade Technical College,Los Angeles,CA,-118.269447,34.031907
117733,Los Angeles Valley College,Valley Glen,CA,-118.421734,34.175165
117751,The Master's University and Seminary,Santa Clarita,CA,-118.518193,34.381755
117788,Los Angeles City College,Los Angeles,CA,-118.292169,34.087301
117803,Los Angeles County College of Nursing and Allied Health,Los Angeles,CA,-118.211852,34.062647
117867,Los Angeles Mission College,Sylmar,CA,-118.4195,34.314668
117894,Los Medanos College,Pittsburg,CA,-121.860967,38.006474
117900,Los Rios Community College District Office,Sacramento,CA,-121.417145,38.579859
117928,Argosy University-The Art Institute of California-San Francisco,San Francisco,CA,-122.413417,37.780569
117946,Loyola Marymount University,Los Angeles,CA,-118.415744,33.97085
117955,Lu Ross Academy,Ventura,CA,-119.293952,34.278034
118134,Lyle's College of Beauty,Bakersfield,CA,-119.02387,35.386539
118143,Lyle's College of  Beauty,Fresno,CA,-119.774167,36.836265
118161,Lytles Redwood Empire Beauty College Inc,Santa Rosa,CA,-122.75777,38.508385
118189,MTI Business College Inc,Stockton,CA,-121.308445,38.007885
118198,MTI College,Sacramento,CA,-121.342568,38.661377
118259,Brightwood College-Sacramento,Sacramento,CA,-121.380453,38.644462
118277,Brightwood College-San Diego,San Diego,CA,-117.133017,32.821707
118286,Brightwood College-Vista,Vista,CA,-117.220816,33.17244
118347,College of Marin,Kentfield,CA,-122.549149,37.954897
118541,Marymount California University,Rancho Palos Verdes,CA,-118.333371,33.734887
118684,Mendocino College,Ukiah,CA,-123.228809,39.188989
118693,Menlo College,Atherton,CA,-122.190797,37.453475
118718,Merced College,Merced,CA,-120.476464,37.3353
118772,Merritt College,Oakland,CA,-122.167335,37.789088
118888,Mills College,Oakland,CA,-122.182294,37.781425
118912,MiraCosta College,Oceanside,CA,-117.302606,33.190483
118930,Mission College,Santa Clara,CA,-121.980783,37.391935
118958,Modern Beauty Academy,Oxnard,CA,-119.181423,34.195384
118967,Brightwood College-Los Angeles-Van Nuys,Van Nuys,CA,-118.468568,34.200812
118976,Modesto Junior College,Modesto,CA,-121.009792,37.651056
118994,Moler Barber College,Oakland,CA,-122.265352,37.827075
119058,Middlebury Institute of International Studies at Monterey,Monterey,CA,-121.897325,36.599736
119067,Monterey Peninsula College,Monterey,CA,-121.884931,36.590558
119137,Moorpark College,Moorpark,CA,-118.834528,34.301146
119164,Mt San Antonio College,Walnut,CA,-117.846629,34.047764
119173,Mount Saint Mary's University,Los Angeles,CA,-118.482879,34.085315
119216,Mt San Jacinto Community College District,San Jacinto,CA,-116.971169,33.806748
119270,Musicians Institute,Hollywood,CA,-118.337582,34.101265
119331,Napa Valley College,Napa,CA,-122.274381,38.274081
119553,National Holistic Institute,Emeryville,CA,-122.287672,37.841898
119605,National University,La Jolla,CA,-117.243026,32.909894
119678,Naval Postgraduate School,Monterey,CA,-121.874248,36.597159
119775,Newschool of Architecture and Design,San Diego,CA,-117.153305,32.71331
119845,Newberry School of Beauty,Granada Hills,CA,-118.499693,34.256683
119951,North Adrian's College of Beauty Inc,Modesto,CA,-120.992753,37.677778
120023,North Orange County Community College District,Anaheim,CA,-117.945559,33.849957
120069,North-West College-Pomona,Pomona,CA,-117.751227,34.062043
120078,North-West College-West Covina,West Covina,CA,-117.949583,34.072071
120087,North-West College-Van Nuys,Van Nuys,CA,-118.450184,34.189497
120184,Notre Dame de Namur University,Belmont,CA,-122.284794,37.517111
120254,Occidental College,Los Angeles,CA,-118.210908,34.127124
120290,Ohlone College,Fremont,CA,-121.916339,37.52773
120342,Orange Coast College,Costa Mesa,CA,-117.909086,33.66927
120403,Otis College of Art and Design,Los Angeles,CA,-118.416615,33.956607
120421,Oxnard College,Oxnard,CA,-119.157604,34.166104
120537,Hope International University,Fullerton,CA,-117.88573,33.87616
120661,Concorde Career College-San Diego,San Diego,CA,-117.102845,32.702814
120698,Palo Alto University,Palo Alto,CA,-122.187437,37.382216
120768,Pacific Oaks College,Pasadena,CA,-118.151323,34.153382
120795,Pacific School of Religion,Berkeley,CA,-122.263155,37.87669
120838,Pacific States University,Los Angeles,CA,-118.298408,34.061315
120865,Pacific Union College,Angwin,CA,-122.440308,38.570585
120883,University of the Pacific,Stockton,CA,-121.312301,37.981424
120953,Palo Verde College,Blythe,CA,-114.651698,33.661538
120971,Palomar College,San Marcos,CA,-117.183978,33.149483
121044,Pasadena City College,Pasadena,CA,-118.118196,34.144552
121150,Pepperdine University,Malibu,CA,-118.707077,34.037786
121178,Peralta Community College System Office,Oakland,CA,-122.260837,37.792667
121257,Pitzer College,Claremont,CA,-117.706675,34.104107
121275,Platt College-San Diego,San Diego,CA,-117.063483,32.76373
121309,Point Loma Nazarene University,San Diego,CA,-117.250265,32.718391
121345,Pomona College,Claremont,CA,-117.714556,34.099027
121363,Porterville College,Porterville,CA,-119.014368,36.049256
121433,Professional Institute of Beauty,El Monte,CA,-118.039028,34.075561
121619,Santa Ana College,Santa Ana,CA,-117.887558,33.759309
121628,Pardee RAND Graduate School,Santa Monica,CA,-118.490655,34.00973
121637,Shasta School of Cosmetology,Redding,CA,-122.387248,40.597114
121691,University of Redlands,Redlands,CA,-117.163218,34.064218
121707,College of the Redwoods,Eureka,CA,-124.195293,40.698427
121859,Salon Success Academy-Upland,Upland,CA,-117.631783,34.108247
121868,Salon Success Academy-Corona,Corona,CA,-117.535638,33.847649
121886,Rio Hondo College,Whittier,CA,-118.033506,34.019821
121901,Riverside City College,Riverside,CA,-117.384323,33.970918
121983,Argosy University-San Francisco Bay Area,Alameda,CA,-122.267523,37.781238
121992,Rosemead Beauty School,Rosemead,CA,-118.082793,34.080756
122117,Dongguk University-Los Angeles,Los Angeles,CA,-118.289523,34.06597
122180,Sacramento City College,Sacramento,CA,-121.491139,38.541096
122205,Saddleback College,Mission Viejo,CA,-117.665584,33.553346
122296,Samuel Merritt University,Oakland,CA,-122.266331,37.82029
122320,San Diego Community College District-District Office,San Diego,CA,-117.101034,32.699217
122339,San Diego City College,San Diego,CA,-117.152733,32.717403
122366,Golf Academy of America-San Diego,Carlsbad,CA,-117.283394,33.12291
122375,San Diego Mesa College,San Diego,CA,-117.169165,32.803825
122384,San Diego Miramar College,San Diego,CA,-117.120261,32.909757
122409,San Diego State University,San Diego,CA,-117.071228,32.77525
122436,University of San Diego,San Diego,CA,-117.192073,32.770816
122454,San Francisco Art Institute,San Francisco,CA,-122.417,37.803575
122506,San Francisco Conservatory of Music,San Francisco,CA,-122.420292,37.775543
122597,San Francisco State University,San Francisco,CA,-122.476799,37.721224
122603,San Francisco Theological Seminary,San Anselmo,CA,-122.565407,37.969952
122612,University of San Francisco,San Francisco,CA,-122.450477,37.776618
122649,San Joaquin College of Law,Clovis,CA,-119.697657,36.82448
122658,San Joaquin Delta College,Stockton,CA,-121.318266,37.995129
122685,San Joaquin Valley College-Visalia,Visalia,CA,-119.384981,36.328049
122728,William Jessup University,Rocklin,CA,-121.292312,38.819728
122737,San Jose-Evergreen Community College District,San Jose,CA,-121.89118,37.334851
122746,San Jose City College,San Jose,CA,-121.926185,37.315827
122755,San Jose State University,San Jose,CA,-121.880621,37.336569
122782,San Mateo County Community College District Office,San Mateo,CA,-122.337537,37.531477
122791,College of San Mateo,San Mateo,CA,-122.334801,37.535698
122834,Santa Barbara Business College-Bakersfield,Bakersfield,CA,-119.061264,35.359544
122852,Santa Barbara Business College-Santa Maria,Santa Maria,CA,-120.433296,34.937806
122889,Santa Barbara City College,Santa Barbara,CA,-119.698045,34.406788
122931,Santa Clara University,Santa Clara,CA,-121.93784,37.348362
122977,Santa Monica College,Santa Monica,CA,-118.469765,34.017022
123013,Santa Rosa Junior College,Santa Rosa,CA,-122.718974,38.45709
123095,Saybrook University,Oakland,CA,-122.272391,37.80446
123165,Scripps College,Claremont,CA,-117.711294,34.104147
123217,College of the Sequoias,Visalia,CA,-119.315182,36.323877
123280,Shasta Bible College and Graduate School,Redding,CA,-122.314419,40.566034
123299,Shasta College,Redding,CA,-122.317982,40.625731
123341,Sierra College,Rocklin,CA,-121.211688,38.790773
123350,Sierra College of Beauty,Merced,CA,-120.495874,37.306975
123448,Trinity Law School,Santa Ana,CA,-117.852059,33.766071
123457,Simpson University,Redding,CA,-122.332981,40.61334
123484,College of the Siskiyous,Weed,CA,-122.38909,41.413005
123493,Charles A Jones Career and Education Center,Sacramento,CA,-121.440796,38.516233
123509,Skyline College,San Bruno,CA,-122.467335,37.63042
123527,San Bernardino Valley College,San Bernardino,CA,-117.313248,34.086353
123554,Saint Mary's College of California,Moraga,CA,-122.109031,37.840731
123563,Solano Community College,Fairfield,CA,-122.122368,38.235881
123572,Sonoma State University,Rohnert Park,CA,-122.677066,38.340274
123633,South Baylo University,Anaheim,CA,-117.958727,33.848216
123642,South Coast College,Orange,CA,-117.874031,33.78818
123651,Vanguard University of Southern California,Costa Mesa,CA,-117.900911,33.662686
123679,Concorde Career College-Garden Grove,Garden Grove,CA,-117.938395,33.774741
123800,Southwestern College,Chula Vista,CA,-116.996803,32.640281
123855,St John's Seminary,Camarillo,CA,-119.001867,34.243921
123916,Starr King School for the Ministry,Berkeley,CA,-122.261778,37.876939
123925,State Center Community College District,Fresno,CA,-119.792755,36.768865
123943,Marshall B Ketchum University,Fullerton,CA,-117.886229,33.889348
123952,Southern California Institute of Architecture,Los Angeles,CA,-118.232799,34.044215
123961,University of Southern California,Los Angeles,CA,-118.284169,34.021281
123970,Southwestern Law School,Los Angeles,CA,-118.288375,34.061558
124113,Taft College,Taft,CA,-119.459751,35.149343
124283,Claremont School of Theology,Claremont,CA,-117.715256,34.107602
124292,Thomas Aquinas College,Santa Paula,CA,-119.087141,34.429009
124487,Epic Bible College,Sacramento,CA,-121.362642,38.645152
124557,University of California-System Administration Central Office,Oakland,CA,-122.27134,37.802222
124681,United Education Institute-Huntington Park Campus,Huntington Park,CA,-118.226206,33.986057
124706,Concorde Career College-San Bernardino,San Bernardino,CA,-117.283995,34.066823
124937,Concorde Career College-North Hollywood,North Hollywood,CA,-118.403627,34.186407
125019,Ventura County Community College System Office,Camarillo,CA,-119.057951,34.219073
125028,Ventura College,Ventura,CA,-119.230604,34.277393
125037,The Santa Barbara and Ventura Colleges of Law at Ventura,Ventura,CA,-119.232988,34.25747
125091,Victor Valley College,Victorville,CA,-117.261456,34.472231
125170,Berkeley City College,Berkeley,CA,-122.269877,37.869769
125222,West Valley Mission Community College District Office,Saratoga,CA,-122.008324,37.26398
125231,Walden University,Minneapolis,MN,-93.265738,44.98125
125310,Waynes College of Beauty,Salinas,CA,-121.652672,36.700635
125462,West Hills College-Coalinga,Coalinga,CA,-120.356747,36.147891
125471,West Los Angeles College,Culver City,CA,-118.386664,34.004512
125499,West Valley College,Saratoga,CA,-122.008324,37.26398
125532,Carrington College-Sacramento,Sacramento,CA,-121.371331,38.556151
125718,Westminster Theological Seminary in California,Escondido,CA,-117.046371,33.121447
125727,Westmont College,Santa Barbara,CA,-119.662517,34.450151
125763,Whittier College,Whittier,CA,-118.032299,33.978773
125897,Woodbury University,Burbank,CA,-118.341147,34.208011
126012,The Wright Institute,Berkeley,CA,-122.253168,37.868221
126030,Western State College of Law at Argosy University,Irvine,CA,-117.760902,33.658464
126049,Thomas Jefferson School of Law,San Diego,CA,-117.154191,32.71014
126076,Yeshiva Ohr Elchonon Chabad West Coast Talmudical Seminary,Los Angeles,CA,-118.346613,34.085465
126100,Yosemite Community College District Office,Modesto,CA,-121.040246,37.66107
126119,Yuba College,Marysville,CA,-121.53964,39.126536
126164,The Salon Professional Academy-Grand Junction,Grand Junction,CO,-108.56521,39.078114
126182,Adams State University,Alamosa,CO,-105.879642,37.473636
126207,Aims Community College,Greeley,CO,-104.763415,40.409559
126289,Arapahoe Community College,Littleton,CO,-105.018631,39.607505
126359,Bel-Rea Institute of Animal Technology,Denver,CO,-104.876207,39.686194
126401,Altierus Career College-Colorado Springs,Colorado Springs,CO,-104.740267,38.807095
126562,University of Colorado Denver/Anschutz Medical Campus,Denver,CO,-104.837722,39.745149
126580,University of Colorado Colorado Springs,Colorado Springs,CO,-104.800296,38.892735
126605,Spartan College of Aeronautics and Technology,Broomfield,CO,-105.119096,39.914822
126614,University of Colorado Boulder,Boulder,CO,-105.270823,40.008781
126669,Colorado Christian University,Lakewood,CO,-105.09456,39.71388
126678,Colorado College,Colorado Springs,CO,-104.822697,38.84886
126687,Concorde Career College-Aurora,Aurora,CO,-104.867089,39.718699
126702,The Art Institute of Colorado,Denver,CO,-104.985847,39.735587
126711,Colorado Mountain College,Glenwood Springs,CO,-107.324441,39.54636
126748,Colorado Northwestern Community College,Rangely,CO,-108.790048,40.081112
126775,Colorado School of Mines,Golden,CO,-105.223364,39.751443
126784,Colorado School of Trades,Lakewood,CO,-105.104174,39.74181
126818,Colorado State University-Fort Collins,Fort Collins,CO,-105.080732,40.574805
126827,Colorado Technical University-Colorado Springs,Colorado Springs,CO,-104.833928,38.894265
126863,Community College of Aurora,Aurora,CO,-104.802673,39.71788
126872,CollegeAmerica-Denver,Denver,CO,-104.941168,39.691571
126915,Technical College of the Rockies,Delta,CO,-108.031072,38.702524
126942,Community College of Denver,Denver,CO,-105.001044,39.741413
126951,Lincoln College of Technology-Denver,Denver,CO,-104.856171,39.77651
126979,Denver Seminary,Littleton,CO,-105.022363,39.600595
127060,University of Denver,Denver,CO,-104.963259,39.678005
127158,Emily Griffith Technical College,Denver,CO,-104.985751,39.74575
127185,Fort Lewis College,Durango,CO,-107.867422,37.275939
127200,Front Range Community College,Westminster,CO,-105.038068,39.901452
127273,Iliff School of Theology,Denver,CO,-104.960657,39.675927
127316,International Salon and Spa Academy,Colorado Springs,CO,-104.786252,38.913621
127389,Lamar Community College,Lamar,CO,-102.616144,38.068886
127556,Colorado Mesa University,Grand Junction,CO,-108.553275,39.080643
127565,Metropolitan State University of Denver,Denver,CO,-105.00504,39.744202
127617,Morgan Community College,Fort  Morgan,CO,-103.771822,40.258792
127653,Naropa University,Boulder,CO,-105.266987,40.014235
127680,National American University-Colorado Springs,Colorado Springs,CO,-104.790957,38.952175
127714,Nazarene Bible College,Colorado Springs,CO,-104.752506,38.816515
127732,Northeastern Junior College,Sterling,CO,-103.197329,40.637215
127741,University of Northern Colorado,Greeley,CO,-104.692777,40.410855
127778,Otero Junior College,La Junta,CO,-103.544874,37.969984
127787,Altierus Career College-Thornton,Thornton,CO,-104.985441,39.86156
127820,Pikes Peak Community College,Colorado Springs,CO,-104.787261,38.764287
127884,Pueblo Community College,Pueblo,CO,-104.636258,38.262124
127909,Red Rocks Community College,Lakewood,CO,-105.150094,39.720277
127918,Regis University,Denver,CO,-105.030756,39.788175
127945,Rocky Mountain College of Art and Design,Lakewood,CO,-105.069911,39.74332
127954,Montessori Education Center of the Rockies,Boulder,CO,-105.241331,40.019673
128106,Colorado State University-Pueblo,Pueblo,CO,-104.579033,38.30859
128151,Pickens Technical College,Aurora,CO,-104.789683,39.723705
128179,Intellitec College-Colorado Springs,Colorado Springs,CO,-104.78721,38.832183
128188,Intellitec College-Grand Junction,Grand Junction,CO,-108.53062,39.116346
128258,Trinidad State Junior College,Trinidad,CO,-104.513451,37.172059
128300,University of Colorado System Office,Denver,CO,-104.983277,39.74521
128328,United States Air Force Academy,USAF Academy,CO,-104.891358,39.010957
128337,Empire Beauty School-Thornton,Thornton,CO,-104.94357,39.915253
128391,Western State Colorado University,Gunnison,CO,-106.919132,38.549936
128498,Albertus Magnus College,New Haven,CT,-72.923848,41.332519
128540,Paul Mitchell the School-Danbury,Danbury,CT,-73.451841,41.39648
128577,Asnuntuck Community College,Enfield,CT,-72.570177,41.998409
128586,Bais Binyomin Academy,Monsey,NY,-74.081172,41.123098
128674,Branford Hall Career Institute-Branford Campus,Branford,CT,-72.848201,41.278557
128683,Lincoln College of New England-Southington,Southington,CT,-72.920217,41.632345
128744,University of Bridgeport,Bridgeport,CT,-73.190166,41.164741
128771,Central Connecticut State University,New Britain,CT,-72.765991,41.692502
128780,Charter Oak State College,New Britain,CT,-72.767972,41.688246
128896,Cortiva Institute-Newington,Newington,CT,-72.710705,41.685072
128902,Connecticut College,New London,CT,-72.107321,41.379833
129002,Porter and Chester Institute of Branford,Branford,CT,-72.854898,41.277311
129020,University of Connecticut,Storrs,CT,-72.249948,41.809098
129154,Goodwin College,East Hartford,CT,-72.64032,41.742977
129181,Lincoln Technical Institute-East Windsor,East Windsor,CT,-72.596915,41.924248
129215,Eastern Connecticut State University,Willimantic,CT,-72.218753,41.721673
129242,Fairfield University,Fairfield,CT,-73.255903,41.157673
129349,Paul Mitchell the School-North Haven,North Haven,CT,-72.85745,41.394495
129367,Capital Community College,Hartford,CT,-72.672734,41.768397
129428,Rensselaer at Hartford,Hartford,CT,-72.673916,41.773462
129482,American Institute-West Hartford,West Hartford,CT,-72.725762,41.727016
129491,Hartford Seminary,Hartford,CT,-72.707766,41.769861
129525,University of Hartford,West Hartford,CT,-72.715213,41.798591
129534,Holy Apostles College and Seminary,Cromwell,CT,-72.647853,41.60682
129543,Housatonic Community College,Bridgeport,CT,-73.191003,41.175228
129695,Manchester Community College,Manchester,CT,-72.561939,41.761625
129729,Naugatuck Valley Community College,Waterbury,CT,-73.072963,41.549749
129756,Middlesex Community College,Middletown,CT,-72.611838,41.539516
129774,Mitchell College,New London,CT,-72.09523,41.328013
129808,Three Rivers Community College,Norwich,CT,-72.103039,41.509945
129923,Lincoln Technical Institute-New Britain,New Britain,CT,-72.754498,41.659236
129932,New England Tractor Trailer Training School of Connecticut,Somers,CT,-72.450218,41.979699
129941,University of New Haven,West Haven,CT,-72.961472,41.291314
130004,Norwalk Community College,Norwalk,CT,-73.450965,41.102574
130040,Northwestern Connecticut Community College,Winsted,CT,-73.058734,41.920668
130110,Paier College of Art Inc,Hamden,CT,-72.935048,41.347714
130174,Porter and Chester Institute of Stratford,Stratford,CT,-73.149023,41.169646
130183,Post University,Waterbury,CT,-73.081497,41.535549
130217,Quinebaug Valley Community College,Danielson,CT,-71.889673,41.82623
130226,Quinnipiac University,Hamden,CT,-72.894117,41.418915
130253,Sacred Heart University,Fairfield,CT,-73.243332,41.220893
130314,University of Saint Joseph,West Hartford,CT,-72.72965,41.781041
130396,Gateway Community College,New Haven,CT,-72.927682,41.303785
130448,St Vincent's College,Bridgeport,CT,-73.201106,41.201198
130493,Southern Connecticut State University,New Haven,CT,-72.947897,41.333225
130509,Stone Academy-West Haven,West Haven,CT,-72.976966,41.267503
130581,Tri-State College of Acupuncture,New York,NY,-74.002085,40.739862
130590,Trinity College,Hartford,CT,-72.690882,41.747451
130606,Tunxis Community College,Farmington,CT,-72.87754,41.705498
130624,United States Coast Guard Academy,New London,CT,-72.101583,41.375823
130697,Wesleyan University,Middletown,CT,-72.657146,41.554665
130776,Western Connecticut State University,Danbury,CT,-73.444264,41.400365
130794,Yale University,New Haven,CT,-72.926688,41.311158
130837,Margaret H Rollins School of Nursing at Beebe Medical Center,Lewes,DE,-75.142864,38.771565
130873,Dawn Career Institute LLC,Newark,DE,-75.677768,39.668605
130882,Delaware Technical Community College-Central Office,Dover,DE,-75.5582,39.20109
130907,Delaware Technical Community College-Terry,Dover,DE,-75.56012,39.198371
130934,Delaware State University,Dover,DE,-75.54053,39.187173
130943,University of Delaware,Newark,DE,-75.752822,39.679577
130989,Goldey-Beacom College,Wilmington,DE,-75.689624,39.741501
131061,Schilling-Douglas School of Hair Design LLC,Newark,DE,-75.74178,39.711442
131098,Wesley College,Dover,DE,-75.527716,39.163182
131113,Wilmington University,New Castle,DE,-75.586998,39.682299
131159,American University,Washington,DC,-77.088875,38.936005
131283,Catholic University of America,Washington,DC,-76.997909,38.933651
131399,University of the District of Columbia,Washington,DC,-77.066247,38.943819
131405,Pontifical Faculty of the Immaculate Conception at the Dominican House of Studies,Washington,DC,-76.998724,38.931652
131450,Gallaudet University,Washington,DC,-76.993675,38.907371
131469,George Washington University,Washington,DC,-77.048363,38.89923
131496,Georgetown University,Washington,DC,-77.073463,38.908809
131520,Howard University,Washington,DC,-77.018966,38.922392
131803,Strayer University-District of Columbia,Washington,DC,-77.034133,38.904881
131830,National Conservatory of Dramatic Arts,Washington,DC,-77.065095,38.910024
131876,Trinity Washington University,Washington,DC,-77.004261,38.927398
131973,Wesley Theological Seminary,Washington,DC,-77.08996,38.939606
132338,The Art Institute of Fort Lauderdale,Fort Lauderdale,FL,-80.123514,26.101096
132374,Atlantic Technical College,Coconut Creek,FL,-80.192271,26.24278
132408,The Baptist College of Florida,Graceville,FL,-85.503931,30.962708
132471,Barry University,Miami,FL,-80.198925,25.878908
132602,Bethune-Cookman University,Daytona Beach,FL,-81.032946,29.207195
132657,Lynn University,Boca Raton,FL,-80.122806,26.385985
132675,North Florida Technical College,Starke,FL,-82.117224,29.952308
132693,Eastern Florida State College,Cocoa,FL,-80.756474,28.38361
132709,Broward College,Fort Lauderdale,FL,-80.14183,26.119422
132842,Carlos Albizu University-Miami,Miami,FL,-80.356315,25.794178
132851,College of Central Florida,Ocala,FL,-82.175692,29.166079
132879,Johnson University Florida,Kissimmee,FL,-81.363053,28.302547
132903,University of Central Florida,Orlando,FL,-81.200889,28.602159
132976,Charlotte Technical College,Port Charlotte,FL,-82.147238,27.005558
133021,Chipola College,Marianna,FL,-85.23139,30.789228
133155,Lorenzo Walker Technical College,Naples,FL,-81.763568,26.141141
133386,Daytona State College,Daytona Beach,FL,-81.049685,29.203275
133465,South University-West Palm Beach,Royal Palm Beach,FL,-80.200219,26.69215
133492,Eckerd College,Saint Petersburg,FL,-82.687043,27.715798
133508,Florida SouthWestern State College,Fort Myers,FL,-81.887102,26.552403
133526,Edward Waters College,Jacksonville,FL,-81.684879,30.34479
133553,Embry-Riddle Aeronautical University-Daytona Beach,Daytona Beach,FL,-81.048367,29.189903
133650,Florida Agricultural and Mechanical University,Tallahassee,FL,-84.290226,30.428504
133669,Florida Atlantic University,Boca Raton,FL,-80.102978,26.372421
133702,Florida State College at Jacksonville,Jacksonville,FL,-81.659901,30.334918
133711,Flagler College-St Augustine,Saint Augustine,FL,-81.314887,29.892733
133809,Florida College,Temple Terrace,FL,-82.383289,28.034936
133845,Concorde Career Institute-Jacksonville,Jacksonville,FL,-81.581748,30.23886
133854,Concorde Career Institute-Miramar,Miramar,FL,-80.291516,25.977088
133863,Concorde Career Institute-Tampa,Tampa,FL,-82.514341,27.959148
133872,AdventHealth University,Orlando,FL,-81.367687,28.576142
133881,Florida Institute of Technology,Melbourne,FL,-80.622893,28.065815
133942,Florida Institute of Ultrasound Inc,Pensacola,FL,-87.220895,30.524582
133951,Florida International University,Miami,FL,-80.373928,25.75732
133960,Florida Keys Community College,Key West,FL,-81.74446,24.582748
133979,Florida Memorial University,Miami Gardens,FL,-80.270753,25.918278
133997,Florida Career College-Miami,Miami,FL,-80.36778,25.756567
134024,Florida School of Massage,Gainesville,FL,-82.338273,29.593428
134079,Florida Southern College,Lakeland,FL,-81.948203,28.032443
134097,Florida State University,Tallahassee,FL,-84.291921,30.440756
134112,Florida Technical College,Orlando,FL,-81.196503,28.573275
134130,University of Florida,Gainesville,FL,-82.347911,29.64629
134228,Fort Pierce Beauty Academy,Fort Pierce,FL,-80.325377,27.411962
134237,Full Sail University,Winter Park,FL,-81.301286,28.596546
134291,George Stone Technical College,Pensacola,FL,-87.290659,30.487547
134307,George T Baker Aviation Technical College,Miami,FL,-80.263591,25.804092
134343,Gulf Coast State College,Panama City,FL,-85.727918,30.185542
134495,Hillsborough Community College,Tampa,FL,-82.456253,27.934888
134510,Hobe Sound Bible College,Hobe Sound,FL,-80.13184,27.066304
134529,Hollywood Institute of Beauty Careers,Hollywood,FL,-80.209125,26.007139
134574,Cortiva Institute-Florida,St. Petersburg,FL,-82.680031,27.793547
134608,Indian River State College,Fort Pierce,FL,-80.358682,27.42416
134714,International Academy,South Daytona,FL,-80.997811,29.162159
134811,AI Miami International University of Art and Design,Miami,FL,-80.18839,25.790008
134945,Jacksonville University,Jacksonville,FL,-81.60458,30.353227
135081,Keiser University-Ft Lauderdale,Fort Lauderdale,FL,-80.163959,26.185869
135142,La Belle Beauty School,Hialeah,FL,-80.312711,25.86695
135160,Florida Gateway College,Lake City,FL,-82.5679,30.175298
135179,Lake Technical College,Eustis,FL,-81.690874,28.833446
135188,Lake-Sumter State College,Leesburg,FL,-81.797193,28.828649
135267,Fort Myers Technical College,Fort Myers,FL,-81.836596,26.647517
135276,Lively Technical Center,Tallahassee,FL,-84.339057,30.448534
135294,Lindsey Hopkins Technical College,Miami,FL,-80.208154,25.794676
135337,Loraines Academy & Spa,Saint Petersburg,FL,-82.713964,27.783077
135364,Luther Rice College & Seminary,Lithonia,GA,-84.123179,33.698126
135391,State College of Florida-Manatee-Sarasota,Bradenton,FL,-82.590887,27.43804
135407,Manatee Technical College,Bradenton,FL,-82.481088,27.447894
135522,Traviss Technical College,Lakeland,FL,-81.892381,27.995822
135559,Merryfield School of Pet Grooming,Oakland Park,FL,-80.129991,26.19044
135610,Trinity International University-Florida,Miami,FL,-80.417646,25.68307
135647,Miami Lakes Educational Center and Technical College,Miami Lakes,FL,-80.29513,25.916128
135717,Miami Dade College,Miami,FL,-80.190856,25.777717
135726,University of Miami,Coral Gables,FL,-80.278662,25.72126
135735,Orange Technical College-Mid Florida Campus,Orlando,FL,-81.415996,28.471695
135771,Beauty Schools of America-Miami,Miami,FL,-80.304459,25.759918
136109,Paul Mitchell the School-Jacksonville,Jacksonville,FL,-81.527515,30.259433
136145,North Florida Community College,Madison,FL,-83.420732,30.473841
136172,University of North Florida,Jacksonville,FL,-81.509144,30.27194
136215,Nova Southeastern University,Fort Lauderdale,FL,-80.24248,26.079337
136233,Northwest Florida State College,Niceville,FL,-86.47456,30.540017
136303,Orange Technical College-Orlando Campus,Orlando,FL,-81.383783,28.550422
136330,Palm Beach Atlantic University,West Palm Beach,FL,-80.05247,26.7044
136358,Palm Beach State College,Lake Worth,FL,-80.08653,26.61256
136400,Pasco-Hernando State College,New Port Richey,FL,-82.646727,28.2751
136473,Pensacola State College,Pensacola,FL,-87.200265,30.479267
136491,Pinellas Technical College-Clearwater,Clearwater,FL,-82.719064,27.911922
136516,Polk State College,Winter Haven,FL,-81.711873,28.032411
136659,Radford M Locklin Technical Center,Milton,FL,-87.09971,30.648077
136701,Saint Vincent de Paul Regional Seminary,Boynton Beach,FL,-80.125185,26.516538
136765,Ridge Technical College,Winter Haven,FL,-81.654463,28.076632
136774,Ringling College of Art and Design,Sarasota,FL,-82.547803,27.360931
136783,Toni & Guy Hairdressing Academy-Jacksonville,Jacksonville,FL,-81.586761,30.2196
136826,Robert Morgan Educational Center and Technical College,Miami,FL,-80.390054,25.599247
136950,Rollins College,Winter Park,FL,-81.349239,28.592787
137023,First Coast Technical College,Saint Augustine,FL,-81.345829,29.924377
137032,Saint Leo University,Saint Leo,FL,-82.257801,28.336776
137078,St Petersburg College,Clearwater,FL,-82.717331,27.90242
137087,Pinellas Technical College-St. Petersburg,Saint Petersburg,FL,-82.681534,27.761183
137096,Santa Fe College,Gainesville,FL,-82.433143,29.681037
137120,Suncoast Technical College,Sarasota,FL,-82.500827,27.285486
137148,Argosy University-Sarasota,Sarasota,FL,-82.465363,27.351394
137209,Seminole State College of Florida,Sanford,FL,-81.308003,28.745482
137245,Sheridan Technical College,Hollywood,FL,-80.198024,26.031736
137272,Saint John Vianney College Seminary,Miami,FL,-80.337411,25.742579
137281,Saint Johns River State College,Palatka,FL,-81.681387,29.647516
137315,South Florida State College,Avon Park,FL,-81.508667,27.56974
137351,University of South Florida-Main Campus,Tampa,FL,-82.413232,28.061458
137476,St. Thomas University,Miami Gardens,FL,-80.253273,25.922071
137546,Stetson University,DeLand,FL,-81.300746,29.035475
137564,Southeastern University,Lakeland,FL,-81.918382,28.029733
137591,Bene's Career Academy,New Port Richey,FL,-82.728584,28.259612
137713,Riveroak Technical College,Live Oak,FL,-82.992512,30.281999
137759,Tallahassee Community College,Tallahassee,FL,-84.339,30.443866
137777,Talmudic College of Florida,Miami Beach,FL,-80.136293,25.811996
137801,Altierus Career College-Tampa,Tampa,FL,-82.497616,27.996582
137847,The University of Tampa,Tampa,FL,-82.46483,27.948455
137856,Big Bend Technical College,Perry,FL,-83.565783,30.077954
137865,Tom P Haney Technical Center,Panama City,FL,-85.646585,30.203363
137953,Trinity Baptist College,Jacksonville,FL,-81.79626,30.311171
137962,Trinity College of Florida,Trinity,FL,-82.678318,28.194732
138132,Fashion Focus Hair Academy,Sarasota,FL,-82.517445,27.258563
138187,Valencia College,Orlando,FL,-81.471466,28.520898
138275,Warner University,Lake Wales,FL,-81.599972,27.825751
138284,Florida Panhandle Technical College,Chipley,FL,-85.553345,30.77449
138293,Webber International University,Babson Park,FL,-81.532315,27.838778
138309,Rasmussen College-Florida,Ocala,FL,-82.197343,29.140099
138354,The University of West Florida,Pensacola,FL,-87.218511,30.549076
138372,Orange Technical College-Westside Campus,Winter Garden,FL,-81.571532,28.559574
138479,William T McFatter Technical College,Davie,FL,-80.232201,26.085022
138488,Orange Technical College-Winter Park Campus,Winter Park,FL,-81.36174,28.604386
138497,Withlacoochee Technical College,Inverness,FL,-82.345563,28.834861
138558,Abraham Baldwin Agricultural College,Tifton,GA,-83.528281,31.481889
138600,Agnes Scott College,Decatur,GA,-84.295459,33.769268
138655,Interactive College of Technology-Chamblee,Chamblee,GA,-84.303159,33.887956
138664,Interactive College of Technology-Morrow,Morrow,GA,-84.336098,33.57233
138682,Albany Technical College,Albany,GA,-84.174284,31.55434
138716,Albany State University,Albany,GA,-84.141825,31.56928
138761,Andrew College,Cuthbert,GA,-84.795021,31.772321
138789,Armstrong State University,Savannah,GA,-81.161803,31.979073
138813,The Art Institute of Atlanta,Atlanta,GA,-84.355252,33.936024
138822,Georgia Career Institute,Conyers,GA,-84.018321,33.64336
138840,Atlanta Technical College,Atlanta,GA,-84.404995,33.712009
138868,Point University,West Point,GA,-85.184931,32.87912
138901,Atlanta Metropolitan State College,Atlanta,GA,-84.404659,33.70893
138929,Atlanta's John Marshall Law School,Atlanta,GA,-84.387898,33.793394
138938,Atlanta School of Massage,Atlanta,GA,-84.311332,33.922131
138947,Clark Atlanta University,Atlanta,GA,-84.412584,33.747628
138956,Augusta Technical College,Augusta,GA,-82.048439,33.418992
139010,Bainbridge State College,Bainbridge,GA,-84.535049,30.899474
139144,Berry College,Mount Berry,GA,-85.189202,34.290414
139153,Beulah Heights University,Atlanta,GA,-84.35768,33.736993
139199,Brenau University,Gainesville,GA,-83.821513,34.303117
139205,Brewton-Parker College,Mount Vernon,GA,-82.586136,32.185718
139214,Brown College of Court Reporting,Atlanta,GA,-84.389979,33.784769
139250,College of Coastal Georgia,Brunswick,GA,-81.485973,31.182745
139278,West Georgia Technical College,Waco,GA,-85.183666,33.691657
139287,Carver Bible College,Atlanta,GA,-84.515547,33.723362
139311,Clayton  State University,Morrow,GA,-84.328174,33.594079
139348,Columbia Theological Seminary,Decatur,GA,-84.281695,33.764292
139357,Columbus Technical College,Columbus,GA,-84.978551,32.508076
139366,Columbus State University,Columbus,GA,-84.94106,32.50096
139384,Georgia Northwestern Technical College,Rome,GA,-85.171361,34.224673
139393,Covenant College,Lookout Mountain,GA,-85.375066,34.965161
139463,Dalton State College,Dalton,GA,-85.002775,34.774221
139506,Pro Way Hair School,Stone Mountain,GA,-84.205183,33.801802
139579,South University-Savannah,Savannah,GA,-81.105435,31.999571
139621,East Georgia State College,Swainsboro,GA,-82.309021,32.594944
139630,Emmanuel College,Franklin Springs,GA,-83.14822,34.283641
139658,Emory University,Atlanta,GA,-84.325512,33.790183
139700,Georgia Highlands College,Rome,GA,-85.207356,34.169791
139719,Fort Valley State University,Fort Valley,GA,-83.89537,32.537595
139746,Grady Health System Professional Schools,Atlanta,GA,-84.381561,33.751852
139755,Georgia Institute of Technology-Main Campus,Atlanta,GA,-84.394832,33.77242
139764,Georgia Southwestern State University,Americus,GA,-84.217738,32.054662
139861,Georgia College & State University,Milledgeville,GA,-83.231962,33.082787
139931,Georgia Southern University,Statesboro,GA,-81.784045,32.426153
139940,Georgia State University,Atlanta,GA,-84.38667,33.7527
139959,University of Georgia,Athens,GA,-83.374039,33.956262
139968,Gordon State College,Barnesville,GA,-84.154508,33.04571
139986,Southern Crescent Technical College,Griffin,GA,-84.291662,33.255438
139995,Gupton Jones College of Funeral Service,Decatur,GA,-84.179775,33.710709
140003,Gwinnett College-Lilburn,Lilburn,GA,-84.121874,33.901271
140012,Gwinnett Technical College,Lawrenceville,GA,-84.066224,33.962763
140146,Interdenominational Theological Center,Atlanta,GA,-84.409207,33.752338
140234,LaGrange College,Lagrange,GA,-85.043113,33.038564
140243,Lanier Technical College,Gainesville,GA,-83.777358,34.330178
140252,Life University,Marietta,GA,-84.514729,33.932781
140331,Chattahoochee Technical College,Marietta,GA,-84.553722,33.929092
140340,Herzing University-Atlanta,Atlanta,GA,-84.387251,33.754218
140447,Mercer University,Macon,GA,-83.648295,32.831787
140553,Morehouse College,Atlanta,GA,-84.414917,33.745982
140562,Morehouse School of Medicine,Atlanta,GA,-84.41186,33.742888
140678,North Georgia Technical College,Clarkesville,GA,-83.530118,34.639721
140696,Oglethorpe University,Atlanta,GA,-84.333687,33.875441
140720,Paine College,Augusta,GA,-81.993225,33.469545
140818,Piedmont College,Demorest,GA,-83.542126,34.566042
140827,Miami Ad School at Portfolio Center,Atlanta,GA,-84.396182,33.812116
140872,Reinhardt University,Waleska,GA,-84.554264,34.319756
140942,Savannah Technical College,Savannah,GA,-81.114753,32.023211
140951,Savannah College of Art and Design,Savannah,GA,-81.093849,32.072963
140960,Savannah State University,Savannah,GA,-81.063377,32.024781
140988,Shorter University,Rome,GA,-85.196529,34.257543
141006,South Georgia Technical College,Americus,GA,-84.188321,32.116663
141015,The Creative Circus,Atlanta,GA,-84.361989,33.813156
141060,Spelman College,Atlanta,GA,-84.411527,33.745279
141167,Thomas University,Thomasville,GA,-83.963587,30.815576
141185,Toccoa Falls College,Toccoa Falls,GA,-83.357617,34.593414
141237,Truett McConnell University,Cleveland,GA,-83.748911,34.596306
141255,Wiregrass Georgia Technical College,Valdosta,GA,-83.35381,30.889221
141264,Valdosta State University,Valdosta,GA,-83.289282,30.847402
141325,Wesleyan College,Macon,GA,-83.715417,32.876037
141334,University of West Georgia,Carrollton,GA,-85.097762,33.573621
141361,Young Harris College,Young Harris,GA,-83.84587,34.933523
141486,Chaminade University of Honolulu,Honolulu,HI,-157.807851,21.28995
141565,University of Hawaii at Hilo,Hilo,HI,-155.080847,19.701189
141574,University of Hawaii at Manoa,Honolulu,HI,-157.818979,21.298598
141608,Hawaii Institute of Hair Design,Honolulu,HI,-157.861609,21.31146
141644,Hawaii Pacific University,Honolulu,HI,-157.859645,21.310306
141680,Honolulu Community College,Honolulu,HI,-157.87,21.321785
141796,Kapiolani Community College,Honolulu,HI,-157.800213,21.27148
141802,Kauai Community College,Lihue,HI,-159.395883,21.968887
141811,Leeward Community College,Pearl City,HI,-157.983771,21.39267
141839,University of Hawaii Maui College,Kahului,HI,-156.477252,20.88956
141936,World Medicine Institute,Honolulu,HI,-157.754719,21.296439
141945,Travel Institute of the Pacific,Honolulu,HI,-157.84134,21.299035
141963,University of Hawaii System Office,Honolulu,HI,-157.819849,21.297263
141981,University of Hawaii-West Oahu,Kapolei,HI,-158.056403,21.35531
141990,Windward Community College,Kaneohe,HI,-157.813307,21.407051
142054,Carrington College-Boise,Boise,ID,-116.260675,43.615295
142090,Boise Bible College,Boise,ID,-116.291321,43.658651
142115,Boise State University,Boise,ID,-116.203301,43.604284
142179,College of Eastern Idaho,Idaho Falls,ID,-111.985519,43.486041
142276,Idaho State University,Pocatello,ID,-112.432312,42.863832
142285,University of Idaho,Moscow,ID,-117.014167,46.727406
142294,The College of Idaho,Caldwell,ID,-116.677992,43.652284
142328,Lewis-Clark State College,Lewiston,ID,-117.024875,46.412199
142407,Aveda Institute-Twin Falls,Twin Falls,ID,-114.461545,42.593567
142416,Mr Leon's School of Hair Design-Moscow,Moscow,ID,-117.001162,46.729532
142443,North Idaho College,Coeur d'Alene,ID,-116.798905,47.67569
142461,Northwest Nazarene University,Nampa,ID,-116.565783,43.562411
142489,Elevate Salon Institute-Chubbuck,Chubbuck,ID,-112.464554,42.919964
142522,Brigham Young University-Idaho,Rexburg,ID,-111.782431,43.818408
142559,College of Southern Idaho,Twin Falls,ID,-114.473901,42.579837
142832,Adler University,Chicago,IL,-87.629156,41.882414
142887,American Academy of Art,Chicago,IL,-87.624788,41.87742
142957,American Islamic College,Chicago,IL,-87.646898,41.954969
143048,School of the Art Institute of Chicago,Chicago,IL,-87.625758,41.88105
143084,Augustana College,Rock Island,IL,-90.55057,41.502365
143118,Aurora University,Aurora,IL,-88.349023,41.753631
143181,Tricoci University of Beauty Culture-Urbana,Urbana,IL,-88.205988,40.117729
143215,Southwestern Illinois College,Belleville,IL,-89.924466,38.516406
143233,Bethany Theological Seminary,Richmond,IN,-84.910689,39.826244
143279,Black Hawk College,Moline,IL,-90.447799,41.477283
143288,Blackburn College,Carlinville,IL,-89.870241,39.287896
143297,Blessing Rieman College of Nursing and Health Sciences,Quincy,IL,-91.399045,39.936549
143303,Blessing Hospital School of Radiologic Technology,Quincy,IL,-91.391542,39.935084
143358,Bradley University,Peoria,IL,-89.616786,40.696896
143376,Paul Mitchell the School-Bradley,Bourbonnais,IL,-87.847099,41.172891
143464,Cameo Beauty Academy,Oak Lawn,IL,-87.740894,41.716051
143473,Cannella School of Hair Design-Villa Park,Villa Park,IL,-87.994628,41.90417
143482,Cannella School of Hair Design-Chicago,Chicago,IL,-87.551622,41.731381
143491,Cannella School of Hair Design-Chicago,Chicago,IL,-87.701198,41.815763
143516,Cannella School of Hair Design-Elgin,Elgin,IL,-88.286781,42.036421
143543,Empire Beauty School-Hanover Park,Hanover Park,IL,-88.135725,41.977516
143552,Capri Beauty College,Oak Forest,IL,-87.771567,41.603863
143613,Carl Sandburg College,Galesburg,IL,-90.408203,40.98128
143659,Catholic Theological Union at Chicago,Chicago,IL,-87.585989,41.797895
143695,La James International College-East Moline,East Moline,IL,-90.449351,41.490319
143853,Midwestern University-Downers Grove,Downers Grove,IL,-87.998342,41.828115
143978,The Chicago School of Professional Psychology at Chicago,Chicago,IL,-87.63379,41.888293
144005,Chicago State University,Chicago,IL,-87.609384,41.718446
144014,Chicago Theological Seminary,Chicago,IL,-87.591178,41.785701
144050,University of Chicago,Chicago,IL,-87.599539,41.787994
144157,City Colleges of Chicago-Kennedy-King College,Chicago,IL,-87.643425,41.780253
144166,City Colleges of Chicago-Malcolm X College,Chicago,IL,-87.675321,41.878092
144175,City Colleges of Chicago-Olive-Harvey College,Chicago,IL,-87.589249,41.709997
144184,City Colleges of Chicago-Harry S Truman College,Chicago,IL,-87.659107,41.964502
144193,City Colleges of Chicago-Richard J Daley College,Chicago,IL,-87.723981,41.755955
144209,City Colleges of Chicago-Harold Washington College,Chicago,IL,-87.626596,41.886067
144218,City Colleges of Chicago-Wilbur Wright College,Chicago,IL,-87.787868,41.958774
144281,Columbia College Chicago,Chicago,IL,-87.624667,41.874261
144351,Concordia University-Chicago,River Forest,IL,-87.809482,41.898696
144485,Coyne College,Chicago,IL,-87.627413,41.882558
144500,City Colleges of Chicago-District Office,Chicago,IL,-87.62666,41.885431
144564,Danville Area Community College,Danville,IL,-87.587884,40.127539
144573,Tricoci University of Beauty Culture-Danville,Danville,IL,-87.636314,40.075809
144740,DePaul University,Chicago,IL,-87.62724,41.877618
144777,DeVry University-Administrative Office,Naperville,IL,-88.126334,41.799874
144795,Cosmetology & Spa Academy,Crystal Lake,IL,-88.294087,42.24918
144865,College of DuPage,Glen Ellyn,IL,-88.071635,41.841577
144883,East-West University,Chicago,IL,-87.624793,41.871309
144892,Eastern Illinois University,Charleston,IL,-88.175658,39.479843
144944,Elgin Community College,Elgin,IL,-88.32194,42.018066
144962,Elmhurst College,Elmhurst,IL,-87.945369,41.897164
144971,Eureka College,Eureka,IL,-89.269624,40.71482
145099,"First Institute of Travel, Inc.",Crystal Lake,IL,-88.339468,42.21926
145239,Fox College,Bedford Park,IL,-87.744728,41.771488
145275,Garrett-Evangelical Theological Seminary,Evanston,IL,-87.675497,42.056221
145309,Gem City College,Quincy,IL,-91.404218,39.926394
145336,Governors State University,University Park,IL,-87.716441,41.449103
145354,Graham Hospital School of Nursing,Canton,IL,-90.038776,40.552962
145372,Greenville University,Greenville,IL,-89.40824,38.894162
145406,Hair Professionals Academy of Cosmetology,Schaumburg,IL,-88.083218,42.061983
145424,Hair Professionals Career College,Sycamore,IL,-88.718145,41.962221
145433,Hair Professionals School of Cosmetology,Oswego,IL,-88.364727,41.682591
145460,Harrington College of Design,Chicago,IL,-87.624678,41.874113
145497,Hebrew Theological College,Skokie,IL,-87.760874,42.010103
145521,Highland Community College,Freeport,IL,-89.67342,42.283344
145558,Rosalind Franklin University of Medicine and Science,North Chicago,IL,-87.859632,42.300069
145600,University of Illinois at Chicago,Chicago,IL,-87.650503,41.871837
145619,Benedictine University,Lisle,IL,-88.097307,41.777569
145628,Illinois College of Optometry,Chicago,IL,-87.623016,41.835447
145637,University of Illinois at Urbana-Champaign,Champaign,IL,-88.229114,40.104718
145646,Illinois Wesleyan University,Bloomington,IL,-88.992014,40.489901
145682,Illinois Central College,East Peoria,IL,-89.52485,40.707235
145691,Illinois College,Jacksonville,IL,-90.246171,39.7313
145707,Olney Central College,Olney,IL,-88.099589,38.735913
145725,Illinois Institute of Technology,Chicago,IL,-87.627321,41.8313
145770,Argosy University-Chicago,Chicago,IL,-87.623772,41.886006
145813,Illinois State University,Normal,IL,-88.990058,40.509403
145831,Illinois Valley Community College,Oglesby,IL,-89.100887,41.30744
145886,Institute for Clinical Social Work,Chicago,IL,-87.627217,41.876064
146205,John A Logan College,Carterville,IL,-89.09021,37.747453
146241,The John Marshall Law School,Chicago,IL,-87.628567,41.877966
146278,John Wood Community College,Quincy,IL,-91.335828,39.913741
146296,Joliet Junior College,Joliet,IL,-88.180985,41.500535
146339,Judson University,Elgin,IL,-88.291336,42.061754
146348,Kankakee Community College,Kankakee,IL,-87.851047,41.098178
146366,Kaskaskia College,Centralia,IL,-89.191974,38.562112
146393,Kendall College,Chicago,IL,-87.648936,41.898756
146418,Kishwaukee College,Malta,IL,-88.880524,41.938234
146427,Knox College,Galesburg,IL,-90.373165,40.943064
146454,Educators of Beauty College of Cosmetology-Peru,PERU,IL,-89.118454,41.354338
146472,College of Lake County,Grayslake,IL,-88.012291,42.354164
146481,Lake Forest College,Lake Forest,IL,-87.827454,42.249574
146490,Lake Forest Graduate School of Management,Lake Forest,IL,-87.893204,42.243432
146506,Lake Land College,Mattoon,IL,-88.380835,39.416969
146533,Lakeview College of Nursing,Danville,IL,-87.644379,40.13855
146603,Lewis and Clark Community College,Godfrey,IL,-90.194405,38.951624
146612,Lewis University,Romeoville,IL,-88.079032,41.605432
146667,Lincoln Christian University,Lincoln,IL,-89.346721,40.148924
146676,Lincoln College,Lincoln,IL,-89.36153,40.155442
146685,Lincoln Land Community College,Springfield,IL,-89.611249,39.721211
146700,Lincoln College of Technology-Melrose Park,Melrose Park,IL,-87.832162,41.905577
146719,Loyola University Chicago,Chicago,IL,-87.656872,42.000765
146728,Lutheran School of Theology at Chicago,Chicago,IL,-87.598978,41.79563
146755,Trinity College of Nursing & Health Sciences,Rock Island,IL,-90.568862,41.484924
146807,Steven Papageorge Hair Academy,Chicago,IL,-87.657152,41.939685
146816,MacCormac College,Chicago,IL,-87.626657,41.881898
146825,MacMurray College,Jacksonville,IL,-90.223986,39.730918
146977,McCormick Theological Seminary,Chicago,IL,-87.598511,41.79597
147004,McHenry County College,Crystal Lake,IL,-88.368956,42.259111
147013,McKendree University,Lebanon,IL,-89.816822,38.608154
147031,Meadville Lombard Theological School,Chicago,IL,-87.624619,41.874027
147129,Methodist College,Peoria,IL,-89.682864,40.7804
147165,Midstate College,Peoria,IL,-89.598859,40.761916
147244,Millikin University,Decatur,IL,-88.976298,39.842612
147341,Monmouth College,Monmouth,IL,-90.63731,40.914824
147369,Moody Bible Institute,Chicago,IL,-87.633459,41.897822
147378,Moraine Valley Community College,Palos Hills,IL,-87.836915,41.694613
147396,Morrison Institute of Technology,Morrison,IL,-89.965963,41.7971
147411,Morton College,Cicero,IL,-87.762306,41.824303
147439,Mr John's School of Cosmetology Esthetics & Nails-Decatur,Decatur,IL,-88.933574,39.846081
147536,National Louis University,Chicago,IL,-87.624699,41.880093
147590,National University of Health Sciences,Lombard,IL,-88.013171,41.861697
147642,Niles School of Cosmetology,Niles,IL,-87.815113,42.027601
147660,North Central College,Naperville,IL,-88.14279,41.77576
147679,North Park University,Chicago,IL,-87.709948,41.975268
147697,Northern Baptist Theological Seminary,Lisle,IL,-88.056162,41.809104
147703,Northern Illinois University,Dekalb,IL,-88.766428,41.933869
147749,Northwestern College-Chicago Campus,Chicago,IL,-87.759615,41.968664
147767,Northwestern University,Evanston,IL,-87.679858,42.050356
147776,Northeastern Illinois University,Chicago,IL,-87.718983,41.980399
147800,Oakton Community College,Des Plaines,IL,-87.880644,42.061893
147819,Oehrlein School of Cosmetology,East Peoria,IL,-89.55712,40.665832
147828,Olivet Nazarene University,Bourbonnais,IL,-87.875165,41.155237
147916,Parkland College,Champaign,IL,-88.290359,40.131963
148007,Prairie State College,Chicago Heights,IL,-87.638943,41.525316
148016,Principia College,Elsah,IL,-90.350285,38.948835
148098,Professional's Choice Hair Design Academy,Joliet,IL,-88.148846,41.523122
148131,Quincy University,Quincy,IL,-91.385975,39.938898
148140,Vatterott College-Quincy,Quincy,IL,-91.35732,39.949578
148177,The Illinois Institute of Art-Chicago,Chicago,IL,-87.637632,41.888723
148256,Rend Lake College,Ina,IL,-88.918283,38.131481
148292,Richland Community College,Decatur,IL,-88.894125,39.883887
148335,Robert Morris University Illinois,Chicago,IL,-87.627068,41.876278
148380,Rock Valley College,Rockford,IL,-88.993544,42.306174
148399,Madison Media Institute-Rockford Career College,Rockford,IL,-89.02722,42.255723
148405,Rockford University,Rockford,IL,-89.019536,42.270639
148487,Roosevelt University,Chicago,IL,-87.624952,41.876055
148496,Dominican University,River Forest,IL,-87.823003,41.902678
148511,Rush University,Chicago,IL,-87.668581,41.874742
148575,Saint Francis Medical Center College of Nursing,Peoria,IL,-89.590322,40.701241
148584,University of St Francis,Joliet,IL,-88.096057,41.532225
148593,St. John's College-Department of Nursing,Springfield,IL,-89.64532,39.807602
148627,Saint Xavier University,Chicago,IL,-87.714749,41.707199
148654,University of Illinois at Springfield,Springfield,IL,-89.616796,39.729524
148672,Sauk Valley Community College,Dixon,IL,-89.596483,41.817659
148821,Shawnee Community College,Ullin,IL,-89.03352,37.270198
148876,Saint Augustine College,Chicago,IL,-87.662806,41.972414
148885,University of Saint Mary of the Lake,Mundelein,IL,-88.000262,42.280702
148937,Southeastern Illinois College,Harrisburg,IL,-88.436631,37.75174
148955,National Latino Education Institute,Chicago,IL,-87.675917,41.822756
148982,Spertus College,Chicago,IL,-87.624785,41.873881
148991,Spoon River College,Canton,IL,-90.07233,40.527991
149028,Saint Anthony College of Nursing,Rockford,IL,-88.991968,42.310147
149204,Educators of Beauty College of Cosmetology-Sterling,Sterling,IL,-89.692522,41.788581
149222,Southern Illinois University-Carbondale,Carbondale,IL,-89.217273,37.714193
149231,Southern Illinois University-Edwardsville,Edwardsville,IL,-89.997779,38.793949
149240,Southern Illinois University-System Office,Carbondale,IL,-89.232216,37.706473
149310,Taylor Business Institute,Chicago,IL,-87.62671,41.885452
149329,Telshe Yeshiva-Chicago,Chicago,IL,-87.71755,41.975536
149365,South Suburban College,South Holland,IL,-87.619123,41.606427
149499,Tri-County Beauty Academy,LITCHFIELD,IL,-89.655742,39.176137
149505,Trinity Christian College,Palos Heights,IL,-87.783973,41.667687
149514,Trinity International University-Illinois,Deerfield,IL,-87.880851,42.197945
149532,Triton College,River Grove,IL,-87.841056,41.916082
149550,University of Spa & Cosmetology Arts,Springfield,IL,-89.710839,39.76672
149587,University of Illinois University Administration,Urbana,IL,-88.228381,40.108488
149639,VanderCook College of Music,Chicago,IL,-87.629138,41.836833
149727,Waubonsee Community College,Sugar Grove,IL,-88.459925,41.795955
149763,Resurrection University,Chicago,IL,-87.685291,41.90748
149772,Western Illinois University,Macomb,IL,-90.686899,40.468086
149781,Wheaton College,Wheaton,IL,-88.099643,41.870176
149842,William Rainey Harper College,Palatine,IL,-88.072811,42.081829
150048,Ancilla College,Donaldson,IN,-86.445263,41.337958
150066,Anderson University,Anderson,IN,-85.664315,40.112768
150136,Ball State University,Muncie,IN,-85.409043,40.203431
150145,Bethel College-Indiana,Mishawaka,IN,-86.194686,41.678399
150163,Butler University,Indianapolis,IN,-86.172167,39.8374
150172,Calumet College of Saint Joseph,Whiting,IN,-87.494123,41.671008
150215,Christian Theological Seminary,Indianapolis,IN,-86.178551,39.832673
150251,College of Court Reporting Inc,Valparaiso,IN,-87.066331,41.467574
150288,Concordia Theological Seminary,Fort Wayne,IN,-85.10994,41.139321
150303,Tricoci University of Beauty Culture-Highland,Highland,IN,-87.467018,41.555885
150400,DePauw University,Greencastle,IN,-86.860363,39.640904
150428,Don Roberts School of Hair Design,Schererville,IN,-87.447089,41.485532
150437,Don Roberts Beauty School,Valparaiso,IN,-87.077791,41.472714
150455,Earlham College,Richmond,IN,-84.915037,39.823431
150534,University of Evansville,Evansville,IN,-87.531644,37.971549
150604,Franklin College,Franklin,IN,-86.047182,39.478298
150668,Goshen College,Goshen,IN,-85.827795,41.563582
150677,Grace College and Theological Seminary,Winona Lake,IN,-85.814228,41.22595
150756,Hanover College,Hanover,IN,-85.460051,38.715642
150765,J Michael Harrold Beauty Academy,Terre Haute,IN,-87.383391,39.470359
150774,Holy Cross College,Notre Dame,IN,-86.253822,41.698996
150853,PJ's College of Cosmetology-Clarksville,Clarksville,IN,-85.768914,38.3121
150941,Huntington University,Huntington,IN,-85.497317,40.898152
150987,Ivy Tech Community College,Indianapolis,IN,-86.158213,39.803753
151102,Purdue University Fort Wayne,Fort Wayne,IN,-85.108962,41.117278
151111,Indiana University-Purdue University-Indianapolis,Indianapolis,IN,-86.172217,39.772948
151166,Harrison College-Indianapolis,Indianapolis,IN,-86.147609,39.767142
151263,University of Indianapolis,Indianapolis,IN,-86.133969,39.709571
151290,Indiana Institute of Technology,Fort Wayne,IN,-85.116479,41.078365
151306,University of Southern Indiana,Evansville,IN,-87.677214,37.962374
151324,Indiana State University,Terre Haute,IN,-87.407846,39.469073
151333,Indiana University-Kokomo,Kokomo,IN,-86.132048,40.460062
151342,Indiana University-South Bend,South Bend,IN,-86.221991,41.665324
151351,Indiana University-Bloomington,Bloomington,IN,-86.526559,39.16609
151360,Indiana University-Northwest,Gary,IN,-87.337249,41.557324
151379,Indiana University-Southeast,New Albany,IN,-85.819985,38.345191
151388,Indiana University-East,Richmond,IN,-84.881923,39.868707
151458,International Business College-Fort Wayne,Fort Wayne,IN,-85.257786,41.035006
151467,International Business College-Indianapolis,Indianapolis,IN,-86.041648,39.885628
151564,Knox Beauty College,Knox,IN,-86.618158,41.287712
151607,Tricoci University of Beauty Culture-Lafayette,Lafayette,IN,-86.887007,40.419818
151652,Empire Beauty School-Indianapolis,Indianapolis,IN,-86.100614,39.666467
151661,Lincoln College of Technology-Indianapolis,Indianapolis,IN,-86.246276,39.884503
151777,Manchester University,North Manchester,IN,-85.762643,41.010549
151786,Marian University,Indianapolis,IN,-86.202643,39.813233
151801,Indiana Wesleyan University-Marion,Marion,IN,-85.667503,40.517937
151810,Martin University,Indianapolis,IN,-86.103953,39.798144
151865,Anabaptist Mennonite Biblical Seminary,Elkhart,IN,-85.972165,41.656013
151962,Mid-America College of Funeral Service,Jeffersonville,IN,-85.744696,38.31209
152044,West Michigan College of Barbering and Beauty,Kalamazoo,MI,-85.590244,42.259329
152080,University of Notre Dame,Notre Dame,IN,-86.238959,41.703058
152099,Oakland City University,Oakland City,IN,-87.35144,38.340891
152150,PJ's College of Cosmetology-Richmond,Richmond,IN,-84.842601,39.83227
152275,Ravenscroft Beauty College,Fort Wayne,IN,-85.046078,41.121802
152309,Rogers Academy of Hair Design,Evansville,IN,-87.609744,37.983756
152318,Rose-Hulman Institute of Technology,Terre Haute,IN,-87.326749,39.483602
152327,Rudae's School of Beauty Culture-Kokomo,Kokomo,IN,-86.132711,40.491296
152336,University of Saint Francis-Fort Wayne,Fort Wayne,IN,-85.177246,41.087205
152381,Saint Mary-of-the-Woods College,Saint Mary of the Woods,IN,-87.463791,39.508546
152390,Saint Mary's College,Notre Dame,IN,-86.256947,41.707274
152415,Brightwood College-Hammond,Hammond,IN,-87.476889,41.571839
152451,Saint Meinrad School of Theology,St. Meinrad,IN,-86.810388,38.165546
152497,Saint Elizabeth School of Nursing,Lafayette,IN,-86.88083,40.427401
152530,Taylor University,Upland,IN,-85.497034,40.456246
152567,Trine University,Angola,IN,-85.008009,41.632502
152600,Valparaiso University,Valparaiso,IN,-87.040172,41.462239
152628,Vincennes Beauty College,Vincennes,IN,-87.53241,38.679739
152637,Vincennes University,Vincennes,IN,-87.519939,38.687766
152673,Wabash College,Crawfordsville,IN,-86.906,40.037588
152798,Allen College,Waterloo,IA,-92.340148,42.530084
152992,Briar Cliff University,Sioux City,IA,-96.428444,42.526443
153001,Buena Vista University,Storm Lake,IA,-95.208529,42.642255
153074,Capri College-Dubuque,Dubuque,IA,-90.665565,42.497357
153083,Capri College-Cedar Rapids,Cedar Rapids,IA,-91.710201,41.960734
153108,Central College,Pella,IA,-92.922199,41.401539
153126,Clarke University,Dubuque,IA,-90.690487,42.509475
153144,Coe College,Cedar Rapids,IA,-91.658192,41.988263
153162,Cornell College,Mount Vernon,IA,-91.423741,41.924554
153171,Iowa School of Beauty-Marshalltown,Marshalltown,IA,-92.915054,42.015283
153214,Des Moines Area Community College,Ankeny,IA,-93.611597,41.707348
153241,Divine Word College,Epworth,IA,-90.934578,42.441721
153250,Dordt College,Sioux Center,IA,-96.166562,43.082527
153269,Drake University,Des Moines,IA,-93.652163,41.60129
153278,University of Dubuque,Dubuque,IA,-90.693428,42.49726
153296,Ellsworth Community College,Iowa Falls,IA,-93.265853,42.527524
153302,Emmaus Bible College,Dubuque,IA,-90.706011,42.508307
153311,Eastern Iowa Community College District,Davenport,IA,-90.574459,41.522179
153320,Faith Baptist Bible College and Theological Seminary,Ankeny,IA,-93.624422,41.737082
153339,Faust Institute of Cosmetology-Storm Lake,Storm Lake,IA,-95.201412,42.654449
153366,Graceland University-Lamoni,Lamoni,IA,-93.924893,40.615966
153375,Grand View University,Des Moines,IA,-93.604352,41.620813
153384,Grinnell College,Grinnell,IA,-92.722094,41.747952
153409,Purdue University Global-Mason City,Mason City,IA,-93.238946,43.149615
153418,Purdue University Global-Cedar Rapids,Cedar Rapids,IA,-91.713507,41.949597
153427,Hamilton Technical College,Davenport,IA,-90.560088,41.573888
153445,Hawkeye Community College,Waterloo,IA,-92.330633,42.430003
153463,American Hair Academy,Mt. Pleasant,IA,-91.524949,40.962643
153472,Indian Hills Community College,Ottumwa,IA,-92.394736,41.045105
153524,Iowa Central Community College,Fort Dodge,IA,-94.20299,42.490067
153533,Iowa Lakes Community College,Estherville,IA,-94.817142,43.397996
153542,UnityPoint Health-Des Moines School of Radiologic Technology,Des Moines,IA,-93.635129,41.590094
153588,American College of Hairstyling-Des Moines,Des Moines,IA,-93.610159,41.592324
153597,Iowa School of Beauty-Des Moines,Des Moines,IA,-93.711628,41.624684
153603,Iowa State University,Ames,IA,-93.648504,42.026212
153621,Iowa Wesleyan University,Mount Pleasant,IA,-91.552459,40.973791
153630,Iowa Western Community College,Council Bluffs,IA,-95.797975,41.272168
153658,University of Iowa,Iowa City,IA,-91.536425,41.661935
153737,Kirkwood Community College,Cedar Rapids,IA,-91.651172,41.911268
153746,La James International College-Cedar Falls,Cedar Falls,IA,-92.434496,42.515026
153764,La James International College-Johnston,Johnston,IA,-93.738577,41.661015
153773,La James College of Hairstyling and Cosmetology,Mason City,IA,-93.199881,43.153786
153782,La James International College-Ft Dodge,Fort Dodge,IA,-94.163856,42.5005
153825,Loras College,Dubuque,IA,-90.679023,42.503908
153834,Luther College,Decorah,IA,-91.802809,43.312304
153861,Maharishi University of Management,Fairfield,IA,-91.967306,41.017781
153922,Marshalltown Community College,Marshalltown,IA,-92.909411,42.00065
153977,Mercy College of Health Sciences,Des Moines,IA,-93.626238,41.594559
154004,Morningside College,Sioux City,IA,-96.359464,42.473891
154013,Mount Mercy University,Cedar Rapids,IA,-91.650991,42.001931
154022,Ashford University,San Diego,CA,-117.141961,32.8273
154059,North Iowa Area Community College,Mason City,IA,-93.13126,43.157169
154095,University of Northern Iowa,Cedar Falls,IA,-92.459703,42.514923
154101,Northwestern College,Orange City,IA,-96.058772,42.999007
154110,Northeast Iowa Community College,Calmar,IA,-91.867105,43.17523
154129,Northwest Iowa Community College,Sheldon,IA,-95.880639,43.184701
154156,Des Moines University-Osteopathic Medical Center,Des Moines,IA,-93.661686,41.583325
154165,Iowa School of Beauty-Ottumwa,Ottumwa,IA,-92.417948,41.02334
154174,Palmer College of Chiropractic,Davenport,IA,-90.574607,41.529021
154208,PCI Academy-Ames,Ames,IA,-93.613611,41.99767
154235,Saint Ambrose University,Davenport,IA,-90.579854,41.54065
154262,St Luke's College,Sioux City,IA,-96.404724,42.520081
154332,La James International College-Davenport,Davenport,IA,-90.5682,41.572861
154341,La James International College-Iowa City,Iowa City,IA,-91.532038,41.663433
154350,Simpson College,Indianola,IA,-93.563471,41.365503
154378,Southeastern Community College,West Burlington,IA,-91.171881,40.814496
154396,Southwestern Community College,Creston,IA,-94.380906,41.073437
154448,Capri College-Davenport,Davenport,IA,-90.538828,41.575211
154457,Iowa School of Beauty-Sioux City,Sioux City,IA,-96.365842,42.441812
154466,E Q School of Hair Design,Council Bluffs,IA,-95.858073,41.235617
154493,Upper Iowa University,Fayette,IA,-91.799543,42.838283
154518,Waldorf University,Forest City,IA,-93.641714,43.262923
154527,Wartburg College,Waverly,IA,-92.483387,42.7277
154536,Wartburg Theological Seminary,Dubuque,IA,-90.691225,42.485761
154545,The Salon Professional Academy-Cedar Falls,Cedar Falls,IA,-92.433262,42.511022
154572,Western Iowa Tech Community College,Sioux City,IA,-96.348874,42.482953
154590,William Penn University,Oskaloosa,IA,-92.647095,41.310111
154642,Allen County Community College,Iola,KS,-95.396377,37.938038
154688,Baker University,Baldwin City,KS,-95.188231,38.777278
154697,Barton County Community College,Great Bend,KS,-98.731648,38.403529
154712,Benedictine College,Atchison,KS,-95.111473,39.572646
154721,Bethany College,Lindsborg,KS,-97.67367,38.580598
154749,Bethel College-North Newton,North Newton,KS,-97.343256,38.075169
154794,Bryan University,Topeka,KS,-95.74372,39.038738
154800,Butler Community College,El Dorado,KS,-96.882987,37.806699
154855,Central Christian College of Kansas,McPherson,KS,-97.668597,38.357978
154907,Cloud County Community College,Concordia,KS,-97.664147,39.554199
154925,Coffeyville Community College,Coffeyville,KS,-95.621374,37.033814
154934,Colby Community College,Colby,KS,-101.052744,39.377601
154952,Cowley County Community College,Arkansas City,KS,-97.043075,37.061668
154998,Dodge City Community College,Dodge City,KS,-100.037481,37.776891
155007,Donnelly College,Kansas City,KS,-94.650677,39.112256
155025,Emporia State University,Emporia,KS,-96.179021,38.414784
155052,Flint Hills Technical College,Emporia,KS,-96.224141,38.41888
155061,Fort Hays State University,Hays,KS,-99.342503,38.872156
155070,Barclay College,Haviland,KS,-99.105351,37.62012
155089,Friends University,Wichita,KS,-97.367048,37.678459
155098,Fort Scott Community College,Fort Scott,KS,-94.715334,37.816206
155104,Garden City Community College,Garden City,KS,-100.848082,37.970151
155140,Haskell Indian Nations University,Lawrence,KS,-95.232879,38.938834
155159,Hays Academy of Hair Design,Hays,KS,-99.310623,38.884873
155177,Hesston College,Hesston,KS,-97.433883,38.134558
155186,Highland Community College,Highland,KS,-95.271539,39.859987
155195,Hutchinson Community College,Hutchinson,KS,-97.92135,38.068035
155201,Independence Community College,Independence,KS,-95.720518,37.195614
155210,Johnson County Community College,Overland Park,KS,-94.727798,38.924125
155283,Concorde Career College-Kansas City,Kansas City,MO,-94.589819,39.06799
155292,Kansas City Kansas Community College,Kansas City,KS,-94.748061,39.121911
155308,Kansas Christian College,Overland Park,KS,-94.666878,38.994848
155317,University of Kansas,Lawrence,KS,-95.247567,38.958549
155335,Newman University,Wichita,KS,-97.37768,37.672643
155353,Old Town Barber College-Wichita,Wichita,KS,-97.323179,37.68586
155399,Kansas State University,Manhattan,KS,-96.581077,39.188648
155414,Kansas Wesleyan University,Salina,KS,-97.607973,38.813795
155423,Washburn Institute of Technology,Topeka,KS,-95.751158,39.04497
155450,Labette Community College,Parsons,KS,-95.255368,37.339062
155487,Manhattan Area Technical College,Manhattan,KS,-96.615672,39.197774
155496,Manhattan Christian College,Manhattan,KS,-96.579383,39.184806
155511,McPherson College,McPherson,KS,-97.642996,38.371422
155520,MidAmerica Nazarene University,Olathe,KS,-94.781635,38.875615
155566,Neosho County Community College,Chanute,KS,-95.464976,37.670672
155593,North Central Kansas Technical College,Beloit,KS,-98.110826,39.482419
155618,Northwest Kansas Technical College,Goodland,KS,-101.70022,39.346424
155627,Ottawa University-Ottawa,Ottawa,KS,-95.264187,38.603173
155636,Ottawa University-Kansas City,Overland Park,KS,-94.635461,38.932055
155681,Pittsburg State University,Pittsburg,KS,-94.702473,37.392071
155715,Pratt Community College,Pratt,KS,-98.714538,37.654451
155812,University of Saint Mary,Leavenworth,KS,-94.906743,39.279396
155830,Salina Area Technical College,Salina,KS,-97.636892,38.793582
155858,Seward County Community College,Liberal,KS,-100.917695,37.059807
155900,Southwestern College,Winfield,KS,-96.975405,37.248608
155937,Sterling College,Sterling,KS,-98.208644,38.219937
155973,Tabor College,Hillsboro,KS,-97.200949,38.348606
156082,Washburn University,Topeka,KS,-95.702222,39.033778
156107,Wichita State University-Campus of Applied Sciences and Technology,Wichita,KS,-97.224151,37.75764
156125,Wichita State University,Wichita,KS,-97.292361,37.718882
156134,Wichita Technical Institute,Wichita,KS,-97.371819,37.656976
156189,Alice Lloyd College,Pippa Passes,KY,-82.875068,37.335087
156213,Asbury University,Wilmore,KY,-84.662606,37.862029
156222,Asbury Theological Seminary,Wilmore,KY,-84.660127,37.861561
156231,Ashland Community and Technical College,Ashland,KY,-82.650664,38.469201
156277,Barrett and Company School of Hair Design,Nicholasville,KY,-84.580326,37.866361
156286,Bellarmine University,Louisville,KY,-85.704997,38.219279
156295,Berea College,Berea,KY,-84.292893,37.57202
156310,PJ's College of Cosmetology-Bowling Green,Bowling Green,KY,-86.469756,36.979195
156338,Southcentral Kentucky Community and Technical College,Bowling Green,KY,-86.476717,36.984827
156356,Brescia University,Owensboro,KY,-87.111639,37.769041
156365,Campbellsville University,Campbellsville,KY,-85.348943,37.343342
156392,Bluegrass Community and Technical College,Lexington,KY,-84.503665,38.024808
156408,Centre College,Danville,KY,-84.779392,37.645709
156417,Clear Creek Baptist Bible College,Pineville,KY,-83.727702,36.725236
156426,Paul Mitchell the School-Lexington,Lexington,KY,-84.548281,37.980361
156471,Galen College of Nursing-Louisville,Louisville,KY,-85.695972,38.277005
156541,University of the Cumberlands,Williamsburg,KY,-84.161646,36.737048
156620,Eastern Kentucky University,Richmond,KY,-84.300796,37.740845
156648,Elizabethtown Community and Technical College,Elizabethtown,KY,-85.879927,37.692858
156727,Frontier Nursing University,Hyden,KY,-83.37937,37.165605
156745,Georgetown College,Georgetown,KY,-84.553767,38.207615
156754,PJ's College of Cosmetology-Glasgow,Glasgow,KY,-85.922275,37.012713
156790,Hazard Community and Technical College,Hazard,KY,-83.175644,37.234897
156842,Paul Mitchell the School-Louisville,Louisville,KY,-85.578849,38.24897
156851,Henderson Community College,Henderson,KY,-87.650091,37.797687
156860,Hopkinsville Community College,Hopkinsville,KY,-87.488297,36.882654
156921,Jefferson Community and Technical College,Louisville,KY,-85.753615,38.246027
156967,Summit Salon Academy-Lexington,Lexington,KY,-84.453521,38.028451
157021,American National University-Lexington,Lexington,KY,-84.421099,38.026996
157030,Kentucky Mountain Bible College,Jackson,KY,-83.438765,37.603443
157058,Kentucky State University,Frankfort,KY,-84.855402,38.201427
157076,Kentucky Wesleyan College,Owensboro,KY,-87.119658,37.744489
157085,University of Kentucky,Lexington,KY,-84.504747,38.038911
157100,Kentucky Christian University,Grayson,KY,-82.945561,38.338805
157207,Lexington Theological Seminary,Lexington,KY,-84.526079,37.996332
157216,Lindsey Wilson College,Columbia,KY,-85.299997,37.101502
157270,Sullivan College of Technology and Design,Louisville,KY,-85.688947,38.200284
157289,University of Louisville,Louisville,KY,-85.760412,38.216862
157298,Louisville Presbyterian Theological Seminary,Louisville,KY,-85.686411,38.237056
157304,Madisonville Community College,Madisonville,KY,-87.512137,37.362661
157331,Maysville Community and Technical College,Maysville,KY,-83.806786,38.626607
157377,Midway University,Midway,KY,-84.678142,38.146126
157386,Morehead State University,Morehead,KY,-83.434021,38.186768
157401,Murray State University,Murray,KY,-88.323629,36.612419
157438,Gateway Community and Technical College,Florence,KY,-84.633478,38.960638
157447,Northern Kentucky University,Highland Heights,KY,-84.463483,39.029714
157483,West Kentucky Community and Technical College,Paducah,KY,-88.658762,37.054081
157535,University of Pikeville,Pikeville,KY,-82.521063,37.479232
157553,Big Sandy Community and Technical College,Prestonsburg,KY,-82.778847,37.688248
157614,Empire Beauty School-Chenoweth,Louisville,KY,-85.65752,38.255764
157650,Empire Beauty School-Elizabethtown,Elizabethtown,KY,-85.878557,37.697453
157669,Empire Beauty School-Dixie,Louisville,KY,-85.830866,38.167059
157678,Empire Beauty School-Florence,Florence,KY,-84.628998,39.009553
157711,Somerset Community College,Somerset,KY,-84.617546,37.059599
157739,Southeast Kentucky Community and Technical College,Cumberland,KY,-82.997661,36.966051
157748,The Southern Baptist Theological Seminary,Louisville,KY,-85.687649,38.248216
157757,Spalding University,Louisville,KY,-85.757725,38.242407
157766,Spencerian College-Louisville,Louisville,KY,-85.631276,38.232177
157793,Sullivan University,Louisville,KY,-85.670489,38.212824
157809,Thomas More College,Crestview Hills,KY,-84.568923,39.022963
157818,Transylvania University,Lexington,KY,-84.493202,38.052983
157827,Trend Setters' Academy of Beauty Culture-Louisville,Louisville,KY,-85.838494,38.144782
157854,Kentucky Community and Technical College System,Versailles,KY,-84.72788,38.058771
157863,Union College,Barbourville,KY,-83.888477,36.870875
157951,Western Kentucky University,Bowling Green,KY,-86.456828,36.985035
158088,Central Louisiana Technical Community College,Alexandria,LA,-92.444506,31.260003
158246,Ayers Career College,Shreveport,LA,-93.798229,32.418291
158325,Baton Rouge General Medical Center-School of Nursing,Baton Rouge,LA,-91.153084,30.449088
158343,Baton Rouge School of Computers,Baton Rouge,LA,-91.080837,30.422155
158431,Bossier Parish Community College,Bossier City,LA,-93.646881,32.539551
158440,Cameron College,New Orleans,LA,-90.088681,29.965981
158477,Centenary College of Louisiana,Shreveport,LA,-93.730834,32.483335
158538,Cloyd's Beauty School 1 Inc,West Monroe,LA,-92.126506,32.499976
158617,Crescent City Bartending School,New Orleans,LA,-90.086679,29.966842
158644,D'Jay's Institute of Cosmetology and Esthiology,Baton Rouge,LA,-91.071568,30.462232
158662,Delgado Community College,New Orleans,LA,-90.103962,29.985149
158723,Delta School of Business and Technology,Lake Charles,LA,-93.214085,30.22867
158778,Avery James School of Cosmetology,Lake Charles,LA,-93.219712,30.202601
158787,Denham Springs Beauty School,Denham Springs,LA,-90.944774,30.484636
158802,Dillard University,New Orleans,LA,-90.06464,29.996587
158884,Nunez Community College,Chalmette,LA,-89.95888,29.95419
159009,Grambling State University,Grambling,LA,-92.713245,32.523797
159027,Guy's Shreveport Academy of Cosmetology Inc,Shreveport,LA,-93.706628,32.485759
159197,ITI Technical College,Baton Rouge,LA,-91.030485,30.369764
159319,John Jay Beauty College,New Orleans,LA,-90.107833,30.019238
159328,John Jay Beauty College,Kenner,LA,-90.230259,30.007684
159373,Louisiana State University Health Sciences Center-New Orleans,New Orleans,LA,-90.083145,29.957272
159382,Louisiana State University-Alexandria,Alexandria,LA,-92.414409,31.178616
159391,Louisiana State University and Agricultural & Mechanical College,Baton Rouge,LA,-91.178921,30.414986
159407,Louisiana State University-Eunice,Eunice,LA,-92.434523,30.473292
159416,Louisiana State University-Shreveport,Shreveport,LA,-93.70561,32.428465
159513,Aveda Institute-Baton Rouge,Baton Rouge,LA,-91.054308,30.426526
